city_name;latitude;longitude;department_name;department_number;region_name;region_number;region_name_raw;city_name_raw;city_population
ville du pont;46.999873398;6.498147193;doubs;25;bourgogne-franche-comté;27;Bourgogne-Franche-Comté;Ville-du-Pont;329
villers grelot;47.361512085;6.235167025;doubs;25;bourgogne-franche-comté;27;Bourgogne-Franche-Comté;Villers-Grélot;144
villars les blamont;47.368383721;6.871414913;doubs;25;bourgogne-franche-comté;27;Bourgogne-Franche-Comté;Villars-lès-Blamont;458
les villedieu;46.713906258;6.26583065;doubs;25;bourgogne-franche-comté;27;Bourgogne-Franche-Comté;Les Villedieu;210
villers buzon;47.228558434;5.852186748;doubs;25;bourgogne-franche-comté;27;Bourgogne-Franche-Comté;Villers-Buzon;277
villers la combe;47.240809828;6.473842387;doubs;25;bourgogne-franche-comté;27;Bourgogne-Franche-Comté;Villers-la-Combe;50
villers sous chalamont;46.901588322;6.045328224;doubs;25;bourgogne-franche-comté;27;Bourgogne-Franche-Comté;Villers-sous-Chalamont;296
voujeaucourt;47.473552905;6.782505604;doubs;25;bourgogne-franche-comté;27;Bourgogne-Franche-Comté;Voujeaucourt;3130
bouconville vauclair;49.460193485;3.756684634;aisne;02;hauts-de-france;32;Hauts-de-France;Bouconville-Vauclair;186
bouresches;49.067056293;3.316703204;aisne;02;hauts-de-france;32;Hauts-de-France;Bouresches;190
brissy hamegicourt;49.742857871;3.399923608;aisne;02;hauts-de-france;32;Hauts-de-France;Brissy-Hamégicourt;653
brumetz;49.110351585;3.153350725;aisne;02;hauts-de-france;32;Hauts-de-France;Brumetz;181
brunehamel;49.771382057;4.186261479;aisne;02;hauts-de-france;32;Hauts-de-France;Brunehamel;453
bucy le long;49.387973822;3.398519722;aisne;02;hauts-de-france;32;Hauts-de-France;Bucy-le-Long;1882
caillouel crepigny;49.617755672;3.121707969;aisne;02;hauts-de-france;32;Hauts-de-France;Caillouël-Crépigny;453
camelin;49.52049848;3.127624347;aisne;02;hauts-de-france;32;Hauts-de-France;Camelin;447
cerny en laonnois;49.450196586;3.679121433;aisne;02;hauts-de-france;32;Hauts-de-France;Cerny-en-Laonnois;62
chambry;49.598625529;3.671806573;aisne;02;hauts-de-france;32;Hauts-de-France;Chambry;832
chaourse;49.70058224;3.985961293;aisne;02;hauts-de-france;32;Hauts-de-France;Chaourse;512
charmes;49.650915124;3.384799677;aisne;02;hauts-de-france;32;Hauts-de-France;Charmes;1624
chaudun;49.315257363;3.252722944;aisne;02;hauts-de-france;32;Hauts-de-France;Chaudun;251
chauny;49.619538899;3.219139283;aisne;02;hauts-de-france;32;Hauts-de-France;Chauny;11496
chezy en orxois;49.126870891;3.168015889;aisne;02;hauts-de-france;32;Hauts-de-France;Chézy-en-Orxois;380
chivy les etouvelles;49.532848303;3.585053697;aisne;02;hauts-de-france;32;Hauts-de-France;Chivy-lès-Étouvelles;500
ciry salsogne;49.367262408;3.467612315;aisne;02;hauts-de-france;32;Hauts-de-France;Ciry-Salsogne;896
clastres;49.749158544;3.230539083;aisne;02;hauts-de-france;32;Hauts-de-France;Clastres;593
montchalons;49.513778836;3.727459479;aisne;02;hauts-de-france;32;Hauts-de-France;Montchâlons;85
monthenault;49.489769799;3.655508134;aisne;02;hauts-de-france;32;Hauts-de-France;Monthenault;151
montigny l allier;49.122370638;3.107996308;aisne;02;hauts-de-france;32;Hauts-de-France;Montigny-l'Allier;268
montigny lengrain;49.372578828;3.099063795;aisne;02;hauts-de-france;32;Hauts-de-France;Montigny-Lengrain;695
mont notre dame;49.292397628;3.582216807;aisne;02;hauts-de-france;32;Hauts-de-France;Mont-Notre-Dame;733
mont st jean;49.792702607;4.210227315;aisne;02;hauts-de-france;32;Hauts-de-France;Mont-Saint-Jean;83
muret et crouttes;49.278626123;3.434628893;aisne;02;hauts-de-france;32;Hauts-de-France;Muret-et-Crouttes;106
nesles la montagne;48.999750332;3.44605178;aisne;02;hauts-de-france;32;Hauts-de-France;Nesles-la-Montagne;1206
neufchatel sur aisne;49.436580849;4.024031385;aisne;02;hauts-de-france;32;Hauts-de-France;Neufchâtel-sur-Aisne;421
le nouvion en thierache;50.008566787;3.809358313;aisne;02;hauts-de-france;32;Hauts-de-France;Le Nouvion-en-Thiérache;2505
ognes;49.614542455;3.191108052;aisne;02;hauts-de-france;32;Hauts-de-France;Ognes;1108
orainville;49.375881407;4.016154951;aisne;02;hauts-de-france;32;Hauts-de-France;Orainville;501
osly courtil;49.399369702;3.237910386;aisne;02;hauts-de-france;32;Hauts-de-France;Osly-Courtil;325
pancy courtecon;49.46035579;3.649818372;aisne;02;hauts-de-france;32;Hauts-de-France;Pancy-Courtecon;53
papleux;50.017614944;3.880061553;aisne;02;hauts-de-france;32;Hauts-de-France;Papleux;116
parcy et tigny;49.270195121;3.329041936;aisne;02;hauts-de-france;32;Hauts-de-France;Parcy-et-Tigny;251
parfondru;49.538438581;3.703323738;aisne;02;hauts-de-france;32;Hauts-de-France;Parfondru;352
pargny la dhuys;48.954292173;3.563228277;aisne;02;hauts-de-france;32;Hauts-de-France;Pargny-la-Dhuys;171
pargny les bois;49.73198721;3.617572589;aisne;02;hauts-de-france;32;Hauts-de-France;Pargny-les-Bois;138
parpeville;49.794619132;3.564481061;aisne;02;hauts-de-france;32;Hauts-de-France;Parpeville;192
viffort;48.957893106;3.469516322;aisne;02;hauts-de-france;32;Hauts-de-France;Viffort;314
villeneuve sur fere;49.170863583;3.4754559240000003;aisne;02;hauts-de-france;32;Hauts-de-France;Villeneuve-sur-Fère;292
villers st christophe;49.779716306;3.09133152;aisne;02;hauts-de-france;32;Hauts-de-France;Villers-Saint-Christophe;424
wimy;49.948014627;3.997490476;aisne;02;hauts-de-france;32;Hauts-de-France;Wimy;479
st firmin;44.793514305;6.025693765;hautes-alpes;05;provence-alpes-côte d'azur;93;Provence-Alpes-Côte d'Azur;Saint-Firmin;449
bosmont sur serre;49.739164547;3.866951038;aisne;02;hauts-de-france;32;Hauts-de-France;Bosmont-sur-Serre;178
bouffignereux;49.378528828;3.846143285;aisne;02;hauts-de-france;32;Hauts-de-France;Bouffignereux;96
bourguignon sous coucy;49.543351686;3.154672717;aisne;02;hauts-de-france;32;Hauts-de-France;Bourguignon-sous-Coucy;104
brancourt en laonnois;49.516508164;3.412722641;aisne;02;hauts-de-france;32;Hauts-de-France;Brancourt-en-Laonnois;718
braye en laonnois;49.437398745;3.609863828;aisne;02;hauts-de-france;32;Hauts-de-France;Braye-en-Laonnois;183
brenelle;49.368284047;3.54436136;aisne;02;hauts-de-france;32;Hauts-de-France;Brenelle;195
brie;49.597375488;3.473167317;aisne;02;hauts-de-france;32;Hauts-de-France;Brie;55
bruyeres et montberault;49.524775786;3.669533869;aisne;02;hauts-de-france;32;Hauts-de-France;Bruyères-et-Montbérault;1432
castres;49.800742628;3.253372217;aisne;02;hauts-de-france;32;Hauts-de-France;Castres;249
chaillevois;49.508011773;3.522228189;aisne;02;hauts-de-france;32;Hauts-de-France;Chaillevois;187
albon d ardeche;44.814986241;4.42533053;ardèche;07;auvergne-rhône-alpes;84;Auvergne-Rhône-Alpes;Albon-d'Ardèche;158
chassemy;49.377956997;3.5022180460000003;aisne;02;hauts-de-france;32;Hauts-de-France;Chassemy;886
chateau thierry;49.056425662;3.381541175;aisne;02;hauts-de-france;32;Hauts-de-France;Château-Thierry;15204
annonay;45.24633989;4.651027131;ardèche;07;auvergne-rhône-alpes;84;Auvergne-Rhône-Alpes;Annonay;16873
chatillon les sons;49.761912822;3.702869899;aisne;02;hauts-de-france;32;Hauts-de-France;Châtillon-lès-Sons;84
chatillon sur oise;49.793931936;3.416909399;aisne;02;hauts-de-france;32;Hauts-de-France;Châtillon-sur-Oise;124
chery chartreuve;49.255681433;3.604732022;aisne;02;hauts-de-france;32;Hauts-de-France;Chéry-Chartreuve;379
les assions;44.425050124;4.184546969;ardèche;07;auvergne-rhône-alpes;84;Auvergne-Rhône-Alpes;Les Assions;770
chery les pouilly;49.648935895;3.593859599;aisne;02;hauts-de-france;32;Hauts-de-France;Chéry-lès-Pouilly;736
beauvene;44.869254781;4.511902169;ardèche;07;auvergne-rhône-alpes;84;Auvergne-Rhône-Alpes;Beauvène;204
chigny;49.930254202;3.776579181;aisne;02;hauts-de-france;32;Hauts-de-France;Chigny;143
cilly;49.749214967;3.840427798;aisne;02;hauts-de-france;32;Hauts-de-France;Cilly;177
bessas;44.337648804;4.298027723;ardèche;07;auvergne-rhône-alpes;84;Auvergne-Rhône-Alpes;Bessas;229
boulieu les annonay;45.267247358;4.64531343;ardèche;07;auvergne-rhône-alpes;84;Auvergne-Rhône-Alpes;Boulieu-lès-Annonay;2294
freyssenet;44.688564128;4.546249145;ardèche;07;auvergne-rhône-alpes;84;Auvergne-Rhône-Alpes;Freyssenet;45
gravieres;44.421176818;4.071956856;ardèche;07;auvergne-rhône-alpes;84;Auvergne-Rhône-Alpes;Gravières;512
laurac en vivarais;44.503712977;4.288051747;ardèche;07;auvergne-rhône-alpes;84;Auvergne-Rhône-Alpes;Laurac-en-Vivarais;1034
malarce sur la thines;44.47842111;4.050331709;ardèche;07;auvergne-rhône-alpes;84;Auvergne-Rhône-Alpes;Malarce-sur-la-Thines;246
marcols les eaux;44.805857591;4.389352756;ardèche;07;auvergne-rhône-alpes;84;Auvergne-Rhône-Alpes;Marcols-les-Eaux;275
montreal;44.518242755;4.294294724;ardèche;07;auvergne-rhône-alpes;84;Auvergne-Rhône-Alpes;Montréal;573
belsentes;44.915172091;4.501873879;ardèche;07;auvergne-rhône-alpes;84;Auvergne-Rhône-Alpes;Belsentes;547
prunet;44.595386971;4.254443305;ardèche;07;auvergne-rhône-alpes;84;Auvergne-Rhône-Alpes;Prunet;135
rocher;44.580743053;4.279673268;ardèche;07;auvergne-rhône-alpes;84;Auvergne-Rhône-Alpes;Rocher;285
st alban auriolles;44.434362261;4.294617257;ardèche;07;auvergne-rhône-alpes;84;Auvergne-Rhône-Alpes;Saint-Alban-Auriolles;1087
st etienne de serre;44.801469013;4.523351508;ardèche;07;auvergne-rhône-alpes;84;Auvergne-Rhône-Alpes;Saint-Étienne-de-Serre;204
st genest lachamp;44.844258846;4.424403779;ardèche;07;auvergne-rhône-alpes;84;Auvergne-Rhône-Alpes;Saint-Genest-Lachamp;112
st maurice en chalencon;44.854713177;4.582378545;ardèche;07;auvergne-rhône-alpes;84;Auvergne-Rhône-Alpes;Saint-Maurice-en-Chalencon;200
st peray;44.940900268;4.824380067;ardèche;07;auvergne-rhône-alpes;84;Auvergne-Rhône-Alpes;Saint-Péray;7588
st romain de lerps;44.976021002;4.796591138;ardèche;07;auvergne-rhône-alpes;84;Auvergne-Rhône-Alpes;Saint-Romain-de-Lerps;939
sampzon;44.412648109;4.331865524;ardèche;07;auvergne-rhône-alpes;84;Auvergne-Rhône-Alpes;Sampzon;245
sanilhac;44.532932661;4.231771763;ardèche;07;auvergne-rhône-alpes;84;Auvergne-Rhône-Alpes;Sanilhac;452
soyons;44.891795842;4.851099731;ardèche;07;auvergne-rhône-alpes;84;Auvergne-Rhône-Alpes;Soyons;2295
montbrehain;49.964774581;3.356345656;aisne;02;hauts-de-france;32;Hauts-de-France;Montbrehain;810
montescourt lizerolles;49.735843297;3.261878148;aisne;02;hauts-de-france;32;Hauts-de-France;Montescourt-Lizerolles;1614
vallon pont d arc;44.400362094;4.405442855;ardèche;07;auvergne-rhône-alpes;84;Auvergne-Rhône-Alpes;Vallon-Pont-d'Arc;2443
montigny les conde;48.983232726;3.566517221;aisne;02;hauts-de-france;32;Hauts-de-France;Montigny-lès-Condé;52
les vans;44.392227568;4.114704212;ardèche;07;auvergne-rhône-alpes;84;Auvergne-Rhône-Alpes;Les Vans;2659
montigny sous marle;49.741394451;3.804042798;aisne;02;hauts-de-france;32;Hauts-de-France;Montigny-sous-Marle;70
montloue;49.667813906;4.062955359;aisne;02;hauts-de-france;32;Hauts-de-France;Montloué;190
mont st pere;49.081931195;3.476999705;aisne;02;hauts-de-france;32;Hauts-de-France;Mont-Saint-Père;691
villeneuve de berg;44.549110618;4.503596816;ardèche;07;auvergne-rhône-alpes;84;Auvergne-Rhône-Alpes;Villeneuve-de-Berg;3029
mortefontaine;49.336522127;3.081227765;aisne;02;hauts-de-france;32;Hauts-de-France;Mortefontaine;221
nampteuil sous muret;49.305284958;3.433858092;aisne;02;hauts-de-france;32;Hauts-de-France;Nampteuil-sous-Muret;98
neuflieux;49.617084777;3.159479468;aisne;02;hauts-de-france;32;Hauts-de-France;Neuflieux;80
neuilly st front;49.162859433;3.264251606;aisne;02;hauts-de-france;32;Hauts-de-France;Neuilly-Saint-Front;2018
nizy le comte;49.574436225;4.030266889;aisne;02;hauts-de-france;32;Hauts-de-France;Nizy-le-Comte;240
noroy sur ourcq;49.204123313;3.207797063;aisne;02;hauts-de-france;32;Hauts-de-France;Noroy-sur-Ourcq;128
nouvion et catillon;49.707297768;3.493588723;aisne;02;hauts-de-france;32;Hauts-de-France;Nouvion-et-Catillon;503
ohis;49.918552317;4.011905333;aisne;02;hauts-de-france;32;Hauts-de-France;Ohis;272
passy sur marne;49.066037275;3.574160645;aisne;02;hauts-de-france;32;Hauts-de-France;Passy-sur-Marne;138
pernant;49.375849613;3.229862367;aisne;02;hauts-de-france;32;Hauts-de-France;Pernant;681
villers agron aiguizy;49.163077859;3.716339895;aisne;02;hauts-de-france;32;Hauts-de-France;Villers-Agron-Aiguizy;66
wiege faty;49.883202459;3.713383147;aisne;02;hauts-de-france;32;Hauts-de-France;Wiège-Faty;182
aigues vives;43.000605933;1.877001309;ariège;09;occitanie;76;Occitanie;Aigues-Vives;634
albies;42.75449595;1.698141074;ariège;09;occitanie;76;Occitanie;Albiès;121
alzen;42.981477991;1.455583307;ariège;09;occitanie;76;Occitanie;Alzen;266
antras;42.873136055;0.901076172;ariège;09;occitanie;76;Occitanie;Antras;74
appy;42.804212622;1.741572347;ariège;09;occitanie;76;Occitanie;Appy;28
arnave;42.852578527;1.6462588500000002;ariège;09;occitanie;76;Occitanie;Arnave;215
arrien en bethmale;42.877897905;1.036286961;ariège;09;occitanie;76;Occitanie;Arrien-en-Bethmale;112
aston;42.681045186;1.659353899;ariège;09;occitanie;76;Occitanie;Aston;198
barjac;43.062358722;1.134894033;ariège;09;occitanie;76;Occitanie;Barjac;43
benagues;43.077767567;1.609995993;ariège;09;occitanie;76;Occitanie;Benagues;515
besset;43.072394781;1.846291671;ariège;09;occitanie;76;Occitanie;Besset;166
bestiac;42.785299496;1.799260845;ariège;09;occitanie;76;Occitanie;Bestiac;24
betchat;43.084337113;1.02905351;ariège;09;occitanie;76;Occitanie;Betchat;356
bezac;43.152935541;1.5735185180000002;ariège;09;occitanie;76;Occitanie;Bézac;467
bonac irazein;42.840298273;0.982966446;ariège;09;occitanie;76;Occitanie;Bonac-Irazein;124
bouan;42.792392257;1.643365341;ariège;09;occitanie;76;Occitanie;Bouan;40
boussenac;42.907697093;1.391199599;ariège;09;occitanie;76;Occitanie;Boussenac;233
burret;42.951550607;1.472306905;ariège;09;occitanie;76;Occitanie;Burret;44
calzan;43.033346295;1.741123428;ariège;09;occitanie;76;Occitanie;Calzan;41
carla de roquefort;42.975332692;1.7620467190000002;ariège;09;occitanie;76;Occitanie;Carla-de-Roquefort;169
castelnau durban;42.992428714;1.338333517;ariège;09;occitanie;76;Occitanie;Castelnau-Durban;454
casteras;43.127912251;1.403548506;ariège;09;occitanie;76;Occitanie;Castéras;22
castex;43.166036647;1.319505787;ariège;09;occitanie;76;Occitanie;Castex;95
cazaux;43.052924497;1.519269138;ariège;09;occitanie;76;Occitanie;Cazaux;41
st maurice en valgodemard;44.798496053;6.112547256;hautes-alpes;05;provence-alpes-côte d'azur;93;Provence-Alpes-Côte d'Azur;Saint-Maurice-en-Valgodemard;121
chassiers;44.566071049;4.301942115;ardèche;07;auvergne-rhône-alpes;84;Auvergne-Rhône-Alpes;Chassiers;1006
chazeaux;44.595318348;4.298677117;ardèche;07;auvergne-rhône-alpes;84;Auvergne-Rhône-Alpes;Chazeaux;139
cornas;44.965893212;4.841157717;ardèche;07;auvergne-rhône-alpes;84;Auvergne-Rhône-Alpes;Cornas;2353
coux;44.743230369;4.622473789;ardèche;07;auvergne-rhône-alpes;84;Auvergne-Rhône-Alpes;Coux;1658
darbres;44.659793314;4.515767253;ardèche;07;auvergne-rhône-alpes;84;Auvergne-Rhône-Alpes;Darbres;265
dornas;44.851597834;4.357764189;ardèche;07;auvergne-rhône-alpes;84;Auvergne-Rhône-Alpes;Dornas;200
largentiere;44.533435177;4.301173733;ardèche;07;auvergne-rhône-alpes;84;Auvergne-Rhône-Alpes;Largentière;1561
mariac;44.885755486;4.353058652;ardèche;07;auvergne-rhône-alpes;84;Auvergne-Rhône-Alpes;Mariac;546
montselgues;44.533398573;4.003739641;ardèche;07;auvergne-rhône-alpes;84;Auvergne-Rhône-Alpes;Montselgues;85
privas;44.722434276;4.594124449;ardèche;07;auvergne-rhône-alpes;84;Auvergne-Rhône-Alpes;Privas;8541
rocles;44.568283822;4.207891882;ardèche;07;auvergne-rhône-alpes;84;Auvergne-Rhône-Alpes;Rocles;261
st cierge sous le cheylard;44.926511605;4.453931301;ardèche;07;auvergne-rhône-alpes;84;Auvergne-Rhône-Alpes;Saint-Cierge-sous-le-Cheylard;213
st marcel les annonay;45.2886497;4.629391603;ardèche;07;auvergne-rhône-alpes;84;Auvergne-Rhône-Alpes;Saint-Marcel-lès-Annonay;1381
st pierre st jean;44.48245206;4.101861085;ardèche;07;auvergne-rhône-alpes;84;Auvergne-Rhône-Alpes;Saint-Pierre-Saint-Jean;183
st pierreville;44.818862746;4.481469211;ardèche;07;auvergne-rhône-alpes;84;Auvergne-Rhône-Alpes;Saint-Pierreville;516
alieze;46.585078016;5.58585556;jura;39;bourgogne-franche-comté;27;Bourgogne-Franche-Comté;Alièze;148
arinthod;46.393818871;5.582269114;jura;39;bourgogne-franche-comté;27;Bourgogne-Franche-Comté;Arinthod;1131
arlay;46.765371686;5.537548031;jura;39;bourgogne-franche-comté;27;Bourgogne-Franche-Comté;Arlay;1187
la chailleuse;46.581654364;5.526378282;jura;39;bourgogne-franche-comté;27;Bourgogne-Franche-Comté;La Chailleuse;592
aumont;46.916358761;5.633131722;jura;39;bourgogne-franche-comté;27;Bourgogne-Franche-Comté;Aumont;458
auxange;47.177696691;5.654431375;jura;39;bourgogne-franche-comté;27;Bourgogne-Franche-Comté;Auxange;200
avignon les st claude;46.401415232;5.841108907;jura;39;bourgogne-franche-comté;27;Bourgogne-Franche-Comté;Avignon-lès-Saint-Claude;362
bans;46.982403501;5.580664055;jura;39;bourgogne-franche-comté;27;Bourgogne-Franche-Comté;Bans;188
baverans;47.105995408;5.536574226;jura;39;bourgogne-franche-comté;27;Bourgogne-Franche-Comté;Baverans;497
beaufort orbagna;46.585163377;5.434623271;jura;39;bourgogne-franche-comté;27;Bourgogne-Franche-Comté;Beaufort-Orbagna;1444
bellefontaine;46.556551899;6.082359393;jura;39;bourgogne-franche-comté;27;Bourgogne-Franche-Comté;Bellefontaine;505
belmont;47.028201675;5.605061014;jura;39;bourgogne-franche-comté;27;Bourgogne-Franche-Comté;Belmont;253
bersaillin;46.857207383;5.595263907;jura;39;bourgogne-franche-comté;27;Bourgogne-Franche-Comté;Bersaillin;406
bracon;46.925701949;5.868310395;jura;39;bourgogne-franche-comté;27;Bourgogne-Franche-Comté;Bracon;311
buvilly;46.869681049;5.725636745;jura;39;bourgogne-franche-comté;27;Bourgogne-Franche-Comté;Buvilly;394
cernon;46.412315932;5.643405536;jura;39;bourgogne-franche-comté;27;Bourgogne-Franche-Comté;Cernon;233
les chalesmes;46.692139123;6.026439714;jura;39;bourgogne-franche-comté;27;Bourgogne-Franche-Comté;Les Chalesmes;85
charency;46.766948662;5.991886106;jura;39;bourgogne-franche-comté;27;Bourgogne-Franche-Comté;Charency;58
charezier;46.614530533;5.726955677;jura;39;bourgogne-franche-comté;27;Bourgogne-Franche-Comté;Charézier;172
chateau chalon;46.759243277;5.648414693;jura;39;bourgogne-franche-comté;27;Bourgogne-Franche-Comté;Château-Chalon;143
le chateley;46.879800002;5.5442929450000005;jura;39;bourgogne-franche-comté;27;Bourgogne-Franche-Comté;Le Chateley;85
chatillon;46.663026475;5.727169626;jura;39;bourgogne-franche-comté;27;Bourgogne-Franche-Comté;Châtillon;118
nanchez;46.500781245;5.861824827;jura;39;bourgogne-franche-comté;27;Bourgogne-Franche-Comté;Nanchez;775
chaux champagny;46.884154623;5.879711162;jura;39;bourgogne-franche-comté;27;Bourgogne-Franche-Comté;Chaux-Champagny;73
chille;46.693041196;5.571909283;jura;39;bourgogne-franche-comté;27;Bourgogne-Franche-Comté;Chille;296
chilly sur salins;46.870199969;5.858210036;jura;39;bourgogne-franche-comté;27;Bourgogne-Franche-Comté;Chilly-sur-Salins;96
chissey sur loue;47.060399995;5.740191409;jura;39;bourgogne-franche-comté;27;Bourgogne-Franche-Comté;Chissey-sur-Loue;318
commenailles;46.805895385;5.437128703;jura;39;bourgogne-franche-comté;27;Bourgogne-Franche-Comté;Commenailles;903
courlans;46.676012788;5.487388674;jura;39;bourgogne-franche-comté;27;Bourgogne-Franche-Comté;Courlans;925
courlaoux;46.669676119;5.449171257;jura;39;bourgogne-franche-comté;27;Bourgogne-Franche-Comté;Courlaoux;1136
courtefontaine;47.132677999;5.792778762;jura;39;bourgogne-franche-comté;27;Bourgogne-Franche-Comté;Courtefontaine;261
coyron;46.512641842;5.697033148;jura;39;bourgogne-franche-comté;27;Bourgogne-Franche-Comté;Coyron;70
hauteroche;46.699491802;5.697212623;jura;39;bourgogne-franche-comté;27;Bourgogne-Franche-Comté;Hauteroche;976
crenans;46.466529395;5.7419862340000005;jura;39;bourgogne-franche-comté;27;Bourgogne-Franche-Comté;Crenans;233
crissey;47.051054482;5.478654585;jura;39;bourgogne-franche-comté;27;Bourgogne-Franche-Comté;Crissey;682
dampierre;47.173242784;5.742542149;jura;39;bourgogne-franche-comté;27;Bourgogne-Franche-Comté;Dampierre;1319
denezieres;46.623880768;5.801157366;jura;39;bourgogne-franche-comté;27;Bourgogne-Franche-Comté;Denezières;73
le deschaux;46.950886325;5.498571507;jura;39;bourgogne-franche-comté;27;Bourgogne-Franche-Comté;Le Deschaux;1014
les deux fays;46.885617586;5.487783703;jura;39;bourgogne-franche-comté;27;Bourgogne-Franche-Comté;Les Deux-Fays;123
digna;46.518360263;5.38498466;jura;39;bourgogne-franche-comté;27;Bourgogne-Franche-Comté;Digna;364
dole;47.075502708;5.500897034;jura;39;bourgogne-franche-comté;27;Bourgogne-Franche-Comté;Dole;23775
dompierre sur mont;46.562417185;5.612866077;jura;39;bourgogne-franche-comté;27;Bourgogne-Franche-Comté;Dompierre-sur-Mont;210
dramelay;46.404302536;5.52954359;jura;39;bourgogne-franche-comté;27;Bourgogne-Franche-Comté;Dramelay;27
val d epy;46.389785344;5.397605725;jura;39;bourgogne-franche-comté;27;Bourgogne-Franche-Comté;Val-d'Épy;310
equevillon;46.760836092;5.9428508650000005;jura;39;bourgogne-franche-comté;27;Bourgogne-Franche-Comté;Équevillon;576
alos;42.897888566;1.129211246;ariège;09;occitanie;76;Occitanie;Alos;118
etival;46.492221957;5.793862303;jura;39;bourgogne-franche-comté;27;Bourgogne-Franche-Comté;Étival;307
arignac;42.87585768;1.595543477;ariège;09;occitanie;76;Occitanie;Arignac;712
francheville;46.836292538;5.502884384;jura;39;bourgogne-franche-comté;27;Bourgogne-Franche-Comté;Francheville;46
artigues;42.689846976;2.037910827;ariège;09;occitanie;76;Occitanie;Artigues;33
le frasnois;46.636351633;5.890811397;jura;39;bourgogne-franche-comté;27;Bourgogne-Franche-Comté;Le Frasnois;173
aulus les bains;42.766542296;1.355768892;ariège;09;occitanie;76;Occitanie;Aulus-les-Bains;159
geraise;46.958660024;5.954886904;jura;39;bourgogne-franche-comté;27;Bourgogne-Franche-Comté;Geraise;44
balacet;42.887117793;0.98278804;ariège;09;occitanie;76;Occitanie;Balacet;44
germigney;47.037391858;5.6858203320000005;jura;39;bourgogne-franche-comté;27;Bourgogne-Franche-Comté;Germigney;75
la bastide de bousignac;43.058173549;1.884852447;ariège;09;occitanie;76;Occitanie;La Bastide-de-Bousignac;340
gevingey;46.638116747;5.50962812;jura;39;bourgogne-franche-comté;27;Bourgogne-Franche-Comté;Gevingey;439
la bastide de serou;43.024895448;1.392649757;ariège;09;occitanie;76;Occitanie;La Bastide-de-Sérou;985
grande riviere chateau;46.528638867;5.909426948;jura;39;bourgogne-franche-comté;27;Bourgogne-Franche-Comté;Grande-Rivière Château;632
la bastide sur l hers;42.950959843;1.89986243;ariège;09;occitanie;76;Occitanie;La Bastide-sur-l'Hers;674
graye et charnay;46.473281265;5.44835224;jura;39;bourgogne-franche-comté;27;Bourgogne-Franche-Comté;Graye-et-Charnay;138
belloc;43.00739017;1.933669882;ariège;09;occitanie;76;Occitanie;Belloc;83
ivrey;46.989178766;5.896461266;jura;39;bourgogne-franche-comté;27;Bourgogne-Franche-Comté;Ivrey;60
benaix;42.895305448;1.850852879;ariège;09;occitanie;76;Occitanie;Bénaix;152
ladoye sur seille;46.767223289;5.682794409;jura;39;bourgogne-franche-comté;27;Bourgogne-Franche-Comté;Ladoye-sur-Seille;48
bethmale;42.853965958;1.07673861;ariège;09;occitanie;76;Occitanie;Bethmale;92
bordes uchentein;42.837369269;1.032045893;ariège;09;occitanie;76;Occitanie;Bordes-Uchentein;213
larnaud;46.706103332;5.457630233;jura;39;bourgogne-franche-comté;27;Bourgogne-Franche-Comté;Larnaud;612
brie;43.206824744;1.517381142;ariège;09;occitanie;76;Occitanie;Brie;210
la latette;46.752350191;6.095555289;jura;39;bourgogne-franche-comté;27;Bourgogne-Franche-Comté;La Latette;76
camarade;43.069587717;1.277445001;ariège;09;occitanie;76;Occitanie;Camarade;203
lavans les st claude;46.38753267;5.769814173;jura;39;bourgogne-franche-comté;27;Bourgogne-Franche-Comté;Lavans-lès-Saint-Claude;2333
camon;43.021739562;1.962204382;ariège;09;occitanie;76;Occitanie;Camon;150
carcanieres;42.707804729;2.123895517;ariège;09;occitanie;76;Occitanie;Carcanières;72
cazals des bayles;43.092880528;1.939678458;ariège;09;occitanie;76;Occitanie;Cazals-des-Baylès;56
lavigny;46.716723376;5.605508663;jura;39;bourgogne-franche-comté;27;Bourgogne-Franche-Comté;Lavigny;384
cerizols;43.119836867;1.067612925;ariège;09;occitanie;76;Occitanie;Cérizols;139
chateau verdun;42.781483366;1.677300872;ariège;09;occitanie;76;Occitanie;Château-Verdun;41
lect;46.394732447;5.672467609;jura;39;bourgogne-franche-comté;27;Bourgogne-Franche-Comté;Lect;349
lemuy;46.889451599;5.982617343;jura;39;bourgogne-franche-comté;27;Bourgogne-Franche-Comté;Lemuy;242
lent;46.75111933;5.976163891;jura;39;bourgogne-franche-comté;27;Bourgogne-Franche-Comté;Lent;147
longcochon;46.770954536;6.075184305;jura;39;bourgogne-franche-comté;27;Bourgogne-Franche-Comté;Longcochon;57
la loye;47.030432038;5.552809277;jura;39;bourgogne-franche-comté;27;Bourgogne-Franche-Comté;La Loye;556
marnezia;46.575761446;5.636094441;jura;39;bourgogne-franche-comté;27;Bourgogne-Franche-Comté;Marnézia;75
mesnay;46.900018759;5.818250676;jura;39;bourgogne-franche-comté;27;Bourgogne-Franche-Comté;Mesnay;576
mignovillard;46.77774079;6.140716692;jura;39;bourgogne-franche-comté;27;Bourgogne-Franche-Comté;Mignovillard;864
molain;46.825383647;5.816773193;jura;39;bourgogne-franche-comté;27;Bourgogne-Franche-Comté;Molain;111
molay;47.015340653;5.423234616;jura;39;bourgogne-franche-comté;27;Bourgogne-Franche-Comté;Molay;506
monay;46.83829832;5.5952518520000005;jura;39;bourgogne-franche-comté;27;Bourgogne-Franche-Comté;Monay;123
monnieres;47.114115559;5.460997029;jura;39;bourgogne-franche-comté;27;Bourgogne-Franche-Comté;Monnières;391
montholier;46.894594959;5.639042641;jura;39;bourgogne-franche-comté;27;Bourgogne-Franche-Comté;Montholier;372
montigny les arsures;46.937006746;5.776683918;jura;39;bourgogne-franche-comté;27;Bourgogne-Franche-Comté;Montigny-lès-Arsures;231
montigny sur l ain;46.705139659;5.791865625;jura;39;bourgogne-franche-comté;27;Bourgogne-Franche-Comté;Montigny-sur-l'Ain;210
montmirey la ville;47.217230686;5.51656716;jura;39;bourgogne-franche-comté;27;Bourgogne-Franche-Comté;Montmirey-la-Ville;174
montmirey le chateau;47.229925885;5.533745481;jura;39;bourgogne-franche-comté;27;Bourgogne-Franche-Comté;Montmirey-le-Château;196
montrond;46.786828301;5.843837081;jura;39;bourgogne-franche-comté;27;Bourgogne-Franche-Comté;Montrond;488
morbier;46.557287203;6.016436172;jura;39;bourgogne-franche-comté;27;Bourgogne-Franche-Comté;Morbier;2290
mournans charbonny;46.776692106;5.9905407870000005;jura;39;bourgogne-franche-comté;27;Bourgogne-Franche-Comté;Mournans-Charbonny;86
les moussieres;46.326880758;5.872391483;jura;39;bourgogne-franche-comté;27;Bourgogne-Franche-Comté;Les Moussières;159
moutoux;46.790797471;5.943902595;jura;39;bourgogne-franche-comté;27;Bourgogne-Franche-Comté;Moutoux;76
les trois chateaux;46.419552874;5.35630085;jura;39;bourgogne-franche-comté;27;Bourgogne-Franche-Comté;Les Trois-Châteaux;765
nancuise;46.473943072;5.529454815;jura;39;bourgogne-franche-comté;27;Bourgogne-Franche-Comté;Nancuise;43
les nans;46.79445617;5.973982908;jura;39;bourgogne-franche-comté;27;Bourgogne-Franche-Comté;Les Nans;97
nevy les dole;47.002726559;5.51581086;jura;39;bourgogne-franche-comté;27;Bourgogne-Franche-Comté;Nevy-lès-Dole;292
nevy sur seille;46.735070332;5.644726458;jura;39;bourgogne-franche-comté;27;Bourgogne-Franche-Comté;Nevy-sur-Seille;194
offlanges;47.203818512;5.560676356;jura;39;bourgogne-franche-comté;27;Bourgogne-Franche-Comté;Offlanges;190
onoz;46.448708512;5.663245225;jura;39;bourgogne-franche-comté;27;Bourgogne-Franche-Comté;Onoz;70
orgelet;46.519453561;5.598867642;jura;39;bourgogne-franche-comté;27;Bourgogne-Franche-Comté;Orgelet;1587
pagney;47.249741201;5.699474911;jura;39;bourgogne-franche-comté;27;Bourgogne-Franche-Comté;Pagney;363
passenans;46.804080834;5.623869417;jura;39;bourgogne-franche-comté;27;Bourgogne-Franche-Comté;Passenans;336
peseux;46.993310722;5.366668785;jura;39;bourgogne-franche-comté;27;Bourgogne-Franche-Comté;Peseux;303
picarreau;46.754640248;5.756814531;jura;39;bourgogne-franche-comté;27;Bourgogne-Franche-Comté;Picarreau;97
plasne;46.794313254;5.690542388;jura;39;bourgogne-franche-comté;27;Bourgogne-Franche-Comté;Plasne;206
poids de fiole;46.594688625;5.622458481;jura;39;bourgogne-franche-comté;27;Bourgogne-Franche-Comté;Poids-de-Fiole;334
poligny;46.818861886;5.773947475;jura;39;bourgogne-franche-comté;27;Bourgogne-Franche-Comté;Poligny;4011
pont du navoy;46.731661169;5.789236418;jura;39;bourgogne-franche-comté;27;Bourgogne-Franche-Comté;Pont-du-Navoy;275
rahon;46.993964981;5.4744054680000005;jura;39;bourgogne-franche-comté;27;Bourgogne-Franche-Comté;Rahon;455
rotalier;46.583165602;5.476647948;jura;39;bourgogne-franche-comté;27;Bourgogne-Franche-Comté;Rotalier;150
rothonay;46.515275321;5.527285899;jura;39;bourgogne-franche-comté;27;Bourgogne-Franche-Comté;Rothonay;136
rouffange;47.22663237;5.708697328;jura;39;bourgogne-franche-comté;27;Bourgogne-Franche-Comté;Rouffange;118
les rousses;46.498235856;6.06968778;jura;39;bourgogne-franche-comté;27;Bourgogne-Franche-Comté;Les Rousses;3683
ste agnes;46.614706582;5.474621246;jura;39;bourgogne-franche-comté;27;Bourgogne-Franche-Comté;Sainte-Agnès;360
st claude;46.408714547;5.875920618;jura;39;bourgogne-franche-comté;27;Bourgogne-Franche-Comté;Saint-Claude;8727
st cyr montmalin;46.958784809;5.722490744;jura;39;bourgogne-franche-comté;27;Bourgogne-Franche-Comté;Saint-Cyr-Montmalin;244
st didier;46.708595427;5.511372071;jura;39;bourgogne-franche-comté;27;Bourgogne-Franche-Comté;Saint-Didier;271
val suran;46.386313329;5.443105612;jura;39;bourgogne-franche-comté;27;Bourgogne-Franche-Comté;Val Suran;782
coteaux du lizon;46.412246961;5.798719091;jura;39;bourgogne-franche-comté;27;Bourgogne-Franche-Comté;Coteaux du Lizon;2168
st maur;46.606897999;5.595990619;jura;39;bourgogne-franche-comté;27;Bourgogne-Franche-Comté;Saint-Maur;221
st maurice crillat;46.568096837;5.834026935;jura;39;bourgogne-franche-comté;27;Bourgogne-Franche-Comté;Saint-Maurice-Crillat;237
salans;47.160113967;5.794392815;jura;39;bourgogne-franche-comté;27;Bourgogne-Franche-Comté;Salans;637
santans;47.042099833;5.665477502;jura;39;bourgogne-franche-comté;27;Bourgogne-Franche-Comté;Santans;276
sarrogna;46.474500649;5.617408824;jura;39;bourgogne-franche-comté;27;Bourgogne-Franche-Comté;Sarrogna;225
songeson;46.647137037;5.830542779;jura;39;bourgogne-franche-comté;27;Bourgogne-Franche-Comté;Songeson;71
soucia;46.540172646;5.757784209;jura;39;bourgogne-franche-comté;27;Bourgogne-Franche-Comté;Soucia;173
souvans;46.97920539;5.553672934;jura;39;bourgogne-franche-comté;27;Bourgogne-Franche-Comté;Souvans;505
tassenieres;46.923022059;5.512541577;jura;39;bourgogne-franche-comté;27;Bourgogne-Franche-Comté;Tassenières;393
la tour du meix;46.523696813;5.662745455;jura;39;bourgogne-franche-comté;27;Bourgogne-Franche-Comté;La Tour-du-Meix;256
trenal;46.636413188;5.4624955790000005;jura;39;bourgogne-franche-comté;27;Bourgogne-Franche-Comté;Trenal;466
verges;46.658826692;5.684090724;jura;39;bourgogne-franche-comté;27;Bourgogne-Franche-Comté;Verges;191
villerserine;46.855455889;5.639683999;jura;39;bourgogne-franche-comté;27;Bourgogne-Franche-Comté;Villerserine;36
villette les arbois;46.933518721;5.743829779;jura;39;bourgogne-franche-comté;27;Bourgogne-Franche-Comté;Villette-lès-Arbois;377
le villey;46.848011647;5.507972027;jura;39;bourgogne-franche-comté;27;Bourgogne-Franche-Comté;Le Villey;91
val sonnette;46.602897042;5.464680776;jura;39;bourgogne-franche-comté;27;Bourgogne-Franche-Comté;Val-Sonnette;942
vincent froideville;46.79367224;5.482371739;jura;39;bourgogne-franche-comté;27;Bourgogne-Franche-Comté;Vincent-Froideville;392
vosbles valfin;46.348400035;5.52189486;jura;39;bourgogne-franche-comté;27;Bourgogne-Franche-Comté;Vosbles-Valfin;185
anlezy;46.966560312;3.498985277;nièvre;58;bourgogne-franche-comté;27;Bourgogne-Franche-Comté;Anlezy;242
anthien;47.308662574;3.724871048;nièvre;58;bourgogne-franche-comté;27;Bourgogne-Franche-Comté;Anthien;167
arleuf;47.040464565;4.015692994;nièvre;58;bourgogne-franche-comté;27;Bourgogne-Franche-Comté;Arleuf;645
asnan;47.310372331;3.5523411510000003;nièvre;58;bourgogne-franche-comté;27;Bourgogne-Franche-Comté;Asnan;118
aunay en bazois;47.124134471;3.719630112;nièvre;58;bourgogne-franche-comté;27;Bourgogne-Franche-Comté;Aunay-en-Bazois;224
biches;46.993703901;3.654343187;nièvre;58;bourgogne-franche-comté;27;Bourgogne-Franche-Comté;Biches;268
billy chevannes;47.011971519;3.461879934;nièvre;58;bourgogne-franche-comté;27;Bourgogne-Franche-Comté;Billy-Chevannes;307
blismes;47.122483237;3.82148616;nièvre;58;bourgogne-franche-comté;27;Bourgogne-Franche-Comté;Blismes;185
breves;47.429737821;3.624267859;nièvre;58;bourgogne-franche-comté;27;Bourgogne-Franche-Comté;Brèves;240
challuy;46.94196697;3.140253373;nièvre;58;bourgogne-franche-comté;27;Bourgogne-Franche-Comté;Challuy;1517
champlin;47.244720142;3.45042992;nièvre;58;bourgogne-franche-comté;27;Bourgogne-Franche-Comté;Champlin;41
champvert;46.853200997;3.523436401;nièvre;58;bourgogne-franche-comté;27;Bourgogne-Franche-Comté;Champvert;743
chaumot;47.251871128;3.643272447;nièvre;58;bourgogne-franche-comté;27;Bourgogne-Franche-Comté;Chaumot;162
colmery;47.348513898;3.246722321;nièvre;58;bourgogne-franche-comté;27;Bourgogne-Franche-Comté;Colméry;268
corbigny;47.256108779;3.689402188;nièvre;58;bourgogne-franche-comté;27;Bourgogne-Franche-Comté;Corbigny;1363
cossaye;46.75584565;3.5098283500000003;nièvre;58;bourgogne-franche-comté;27;Bourgogne-Franche-Comté;Cossaye;673
dirol;47.31839342;3.643605188;nièvre;58;bourgogne-franche-comté;27;Bourgogne-Franche-Comté;Dirol;108
dommartin;47.071580028;3.845762646;nièvre;58;bourgogne-franche-comté;27;Bourgogne-Franche-Comté;Dommartin;158
empury;47.347358725;3.822286786;nièvre;58;bourgogne-franche-comté;27;Bourgogne-Franche-Comté;Empury;81
epiry;47.17048431;3.731841261;nièvre;58;bourgogne-franche-comté;27;Bourgogne-Franche-Comté;Epiry;233
garchizy;47.043647776;3.09366001;nièvre;58;bourgogne-franche-comté;27;Bourgogne-Franche-Comté;Garchizy;3685
lamenay sur loire;46.74622068;3.572315444;nièvre;58;bourgogne-franche-comté;27;Bourgogne-Franche-Comté;Lamenay-sur-Loire;72
lormes;47.289145913;3.825318823;nièvre;58;bourgogne-franche-comté;27;Bourgogne-Franche-Comté;Lormes;1264
lucenay les aix;46.698049547;3.49197907;nièvre;58;bourgogne-franche-comté;27;Bourgogne-Franche-Comté;Lucenay-lès-Aix;966
la machine;46.891574846;3.462345119;nièvre;58;bourgogne-franche-comté;27;Bourgogne-Franche-Comté;La Machine;3220
mesves sur loire;47.230238077;3.00396493;nièvre;58;bourgogne-franche-comté;27;Bourgogne-Franche-Comté;Mesves-sur-Loire;657
metz le comte;47.393000619;3.63581637;nièvre;58;bourgogne-franche-comté;27;Bourgogne-Franche-Comté;Metz-le-Comte;172
mhere;47.194724629;3.860095553;nièvre;58;bourgogne-franche-comté;27;Bourgogne-Franche-Comté;Mhère;228
moissy moulinot;47.327325796;3.707138721;nièvre;58;bourgogne-franche-comté;27;Bourgogne-Franche-Comté;Moissy-Moulinot;13
montaron;46.876229584;3.74814841;nièvre;58;bourgogne-franche-comté;27;Bourgogne-Franche-Comté;Montaron;156
montigny aux amognes;47.025418665;3.279291198;nièvre;58;bourgogne-franche-comté;27;Bourgogne-Franche-Comté;Montigny-aux-Amognes;642
montsauche les settons;47.214293843;4.033132574;nièvre;58;bourgogne-franche-comté;27;Bourgogne-Franche-Comté;Montsauche-les-Settons;514
moussy;47.196501089;3.458811837;nièvre;58;bourgogne-franche-comté;27;Bourgogne-Franche-Comté;Moussy;105
neuvy sur loire;47.532184059;2.890145485;nièvre;58;bourgogne-franche-comté;27;Bourgogne-Franche-Comté;Neuvy-sur-Loire;1410
parigny les vaux;47.100804556;3.14618141;nièvre;58;bourgogne-franche-comté;27;Bourgogne-Franche-Comté;Parigny-les-Vaux;967
perroy;47.404986749;3.164677484;nièvre;58;bourgogne-franche-comté;27;Bourgogne-Franche-Comté;Perroy;145
pougny;47.393831753;3.023949976;nièvre;58;bourgogne-franche-comté;27;Bourgogne-Franche-Comté;Pougny;473
raveau;47.17926708;3.11591039;nièvre;58;bourgogne-franche-comté;27;Bourgogne-Franche-Comté;Raveau;628
rix;47.428512741;3.497810228;nièvre;58;bourgogne-franche-comté;27;Bourgogne-Franche-Comté;Rix;155
rouy;47.038444956;3.540866134;nièvre;58;bourgogne-franche-comté;27;Bourgogne-Franche-Comté;Rouy;638
saincaize meauce;46.907173624;3.086845687;nièvre;58;bourgogne-franche-comté;27;Bourgogne-Franche-Comté;Saincaize-Meauce;370
st amand en puisaye;47.548323784;3.078355821;nièvre;58;bourgogne-franche-comté;27;Bourgogne-Franche-Comté;Saint-Amand-en-Puisaye;1218
st andelain;47.310384116;2.979820121;nièvre;58;bourgogne-franche-comté;27;Bourgogne-Franche-Comté;Saint-Andelain;601
st aubin les forges;47.142698568;3.188014293;nièvre;58;bourgogne-franche-comté;27;Bourgogne-Franche-Comté;Saint-Aubin-les-Forges;383
st benin d azy;46.996333663;3.404599867;nièvre;58;bourgogne-franche-comté;27;Bourgogne-Franche-Comté;Saint-Benin-d'Azy;1259
st brisson;47.267265254;4.095032233;nièvre;58;bourgogne-franche-comté;27;Bourgogne-Franche-Comté;Saint-Brisson;255
ste colombe des bois;47.320917806;3.153157406;nièvre;58;bourgogne-franche-comté;27;Bourgogne-Franche-Comté;Sainte-Colombe-des-Bois;137
st didier;47.347673421;3.620226539;nièvre;58;bourgogne-franche-comté;27;Bourgogne-Franche-Comté;Saint-Didier;29
st germain des bois;47.368787274;3.519227773;nièvre;58;bourgogne-franche-comté;27;Bourgogne-Franche-Comté;Saint-Germain-des-Bois;123
st hilaire en morvan;47.06844189;3.887071717;nièvre;58;bourgogne-franche-comté;27;Bourgogne-Franche-Comté;Saint-Hilaire-en-Morvan;217
st martin d heuille;47.047771084;3.232701792;nièvre;58;bourgogne-franche-comté;27;Bourgogne-Franche-Comté;Saint-Martin-d'Heuille;559
st parize le chatel;46.850549482;3.184554383;nièvre;58;bourgogne-franche-comté;27;Bourgogne-Franche-Comté;Saint-Parize-le-Châtel;1225
st pereuse;47.058655622;3.809291888;nièvre;58;bourgogne-franche-comté;27;Bourgogne-Franche-Comté;Saint-Péreuse;205
st pierre du mont;47.397152106;3.445964737;nièvre;58;bourgogne-franche-comté;27;Bourgogne-Franche-Comté;Saint-Pierre-du-Mont;163
st saulge;47.101706892;3.519020775;nièvre;58;bourgogne-franche-comté;27;Bourgogne-Franche-Comté;Saint-Saulge;708
saizy;47.356468636;3.699305614;nièvre;58;bourgogne-franche-comté;27;Bourgogne-Franche-Comté;Saizy;186
sauvigny les bois;46.97672732;3.265716918;nièvre;58;bourgogne-franche-comté;27;Bourgogne-Franche-Comté;Sauvigny-les-Bois;1420
savigny poil fol;46.783063431;3.834829642;nièvre;58;bourgogne-franche-comté;27;Bourgogne-Franche-Comté;Savigny-Poil-Fol;109
sermages;47.014754309;3.840844707;nièvre;58;bourgogne-franche-comté;27;Bourgogne-Franche-Comté;Sermages;191
sougy sur loire;46.860833962;3.406365103;nièvre;58;bourgogne-franche-comté;27;Bourgogne-Franche-Comté;Sougy-sur-Loire;585
taconnay;47.312462675;3.489728345;nièvre;58;bourgogne-franche-comté;27;Bourgogne-Franche-Comté;Taconnay;71
tamnay en bazois;47.05447347;3.723322788;nièvre;58;bourgogne-franche-comté;27;Bourgogne-Franche-Comté;Tamnay-en-Bazois;158
ternant;46.752204501;3.848258349;nièvre;58;bourgogne-franche-comté;27;Bourgogne-Franche-Comté;Ternant;174
tintury;47.001103423;3.587717764;nièvre;58;bourgogne-franche-comté;27;Bourgogne-Franche-Comté;Tintury;163
tracy sur loire;47.328811429;2.913507219;nièvre;58;bourgogne-franche-comté;27;Bourgogne-Franche-Comté;Tracy-sur-Loire;987
trois vevres;46.911289164;3.422713491;nièvre;58;bourgogne-franche-comté;27;Bourgogne-Franche-Comté;Trois-Vèvres;245
varennes vauzelles;47.037171544;3.143816706;nièvre;58;bourgogne-franche-comté;27;Bourgogne-Franche-Comté;Varennes-Vauzelles;9180
vauclaix;47.226945644;3.818473294;nièvre;58;bourgogne-franche-comté;27;Bourgogne-Franche-Comté;Vauclaix;135
villapourcon;46.938009519;3.956586921;nièvre;58;bourgogne-franche-comté;27;Bourgogne-Franche-Comté;Villapourçon;410
villiers le sec;47.376396559;3.438075945;nièvre;58;bourgogne-franche-comté;27;Bourgogne-Franche-Comté;Villiers-le-Sec;51
abergement la ronce;47.064796871;5.3777147020000005;jura;39;bourgogne-franche-comté;27;Bourgogne-Franche-Comté;Abergement-la-Ronce;841
aiglepierre;46.955778512;5.809725465;jura;39;bourgogne-franche-comté;27;Bourgogne-Franche-Comté;Aiglepierre;436
andelot en montagne;46.859307701;5.9287358910000005;jura;39;bourgogne-franche-comté;27;Bourgogne-Franche-Comté;Andelot-en-Montagne;552
annoire;46.959137146;5.277080177;jura;39;bourgogne-franche-comté;27;Bourgogne-Franche-Comté;Annoire;417
arbois;46.894404349;5.773071251;jura;39;bourgogne-franche-comté;27;Bourgogne-Franche-Comté;Arbois;3193
ardon;46.772582561;5.876813684;jura;39;bourgogne-franche-comté;27;Bourgogne-Franche-Comté;Ardon;113
les arsures;46.952953571;5.78448162;jura;39;bourgogne-franche-comté;27;Bourgogne-Franche-Comté;Les Arsures;209
augea;46.561977614;5.389704364;jura;39;bourgogne-franche-comté;27;Bourgogne-Franche-Comté;Augea;272
augisey;46.554958723;5.495274567;jura;39;bourgogne-franche-comté;27;Bourgogne-Franche-Comté;Augisey;183
authume;47.125097086;5.5077556990000005;jura;39;bourgogne-franche-comté;27;Bourgogne-Franche-Comté;Authume;856
baresia sur l ain;46.542556338;5.702967812;jura;39;bourgogne-franche-comté;27;Bourgogne-Franche-Comté;Barésia-sur-l'Ain;144
bief du fourg;46.820307882;6.116823945;jura;39;bourgogne-franche-comté;27;Bourgogne-Franche-Comté;Bief-du-Fourg;214
bletterans;46.73099818;5.426692489;jura;39;bourgogne-franche-comté;27;Bourgogne-Franche-Comté;Bletterans;1527
boissia;46.580398304;5.721268625;jura;39;bourgogne-franche-comté;27;Bourgogne-Franche-Comté;Boissia;109
brainans;46.874338822;5.627977286;jura;39;bourgogne-franche-comté;27;Bourgogne-Franche-Comté;Brainans;181
cernans;46.93402991;5.938916487;jura;39;bourgogne-franche-comté;27;Bourgogne-Franche-Comté;Cernans;141
cesancey;46.622738688;5.493457369;jura;39;bourgogne-franche-comté;27;Bourgogne-Franche-Comté;Cesancey;390
chamblay;46.990400377;5.703642578;jura;39;bourgogne-franche-comté;27;Bourgogne-Franche-Comté;Chamblay;423
champagney;47.260097181;5.5044443;jura;39;bourgogne-franche-comté;27;Bourgogne-Franche-Comté;Champagney;462
champagnole;46.744975968;5.8983600670000005;jura;39;bourgogne-franche-comté;27;Bourgogne-Franche-Comté;Champagnole;8000
champdivers;47.007794972;5.390195236;jura;39;bourgogne-franche-comté;27;Bourgogne-Franche-Comté;Champdivers;445
champrougier;46.87911614;5.512528995;jura;39;bourgogne-franche-comté;27;Bourgogne-Franche-Comté;Champrougier;101
la chassagne;46.868024219;5.4550856880000005;jura;39;bourgogne-franche-comté;27;Bourgogne-Franche-Comté;La Chassagne;105
chatel de joux;46.52980412;5.809442391;jura;39;bourgogne-franche-comté;27;Bourgogne-Franche-Comté;Châtel-de-Joux;51
la chaumusse;46.600726273;5.943755309;jura;39;bourgogne-franche-comté;27;Bourgogne-Franche-Comté;La Chaumusse;393
chaux des crotenay;46.66328688;5.957121204;jura;39;bourgogne-franche-comté;27;Bourgogne-Franche-Comté;Chaux-des-Crotenay;390
st hymetiere sur valouse;46.347931605;5.5673489830000005;jura;39;bourgogne-franche-comté;27;Bourgogne-Franche-Comté;Saint-Hymetière-sur-Valouse;423
chevreaux;46.499559331;5.43244807;jura;39;bourgogne-franche-comté;27;Bourgogne-Franche-Comté;Chevreaux;127
chevrotaine;46.652848582;5.860571474;jura;39;bourgogne-franche-comté;27;Bourgogne-Franche-Comté;Chevrotaine;33
choux;46.30173613;5.770142336;jura;39;bourgogne-franche-comté;27;Bourgogne-Franche-Comté;Choux;133
courbette;46.598515602;5.569052397;jura;39;bourgogne-franche-comté;27;Bourgogne-Franche-Comté;Courbette;46
crans;46.695251604;5.982330751;jura;39;bourgogne-franche-comté;27;Bourgogne-Franche-Comté;Crans;82
cressia;46.526997962;5.483738782;jura;39;bourgogne-franche-comté;27;Bourgogne-Franche-Comté;Cressia;258
darbonnay;46.825255392;5.60789332;jura;39;bourgogne-franche-comté;27;Bourgogne-Franche-Comté;Darbonnay;79
desnes;46.767768879;5.468146705;jura;39;bourgogne-franche-comté;27;Bourgogne-Franche-Comté;Desnes;485
domblans;46.769387126;5.587256626;jura;39;bourgogne-franche-comté;27;Bourgogne-Franche-Comté;Domblans;1207
ecrille;46.502347659;5.633946941;jura;39;bourgogne-franche-comté;27;Bourgogne-Franche-Comté;Écrille;85
l etoile;46.715901208;5.534098399;jura;39;bourgogne-franche-comté;27;Bourgogne-Franche-Comté;L' Étoile;570
falletans;47.081906099;5.566900417;jura;39;bourgogne-franche-comté;27;Bourgogne-Franche-Comté;Falletans;405
fay en montagne;46.753761219;5.71729563;jura;39;bourgogne-franche-comté;27;Bourgogne-Franche-Comté;Fay-en-Montagne;84
la ferte;46.940273716;5.650059485;jura;39;bourgogne-franche-comté;27;Bourgogne-Franche-Comté;La Ferté;192
fontenu;46.672524779;5.814694447;jura;39;bourgogne-franche-comté;27;Bourgogne-Franche-Comté;Fontenu;74
fraroz;46.728653012;6.095349334;jura;39;bourgogne-franche-comté;27;Bourgogne-Franche-Comté;Fraroz;54
frontenay;46.787924716;5.631315523;jura;39;bourgogne-franche-comté;27;Bourgogne-Franche-Comté;Frontenay;160
gigny;46.454282314;5.471075037;jura;39;bourgogne-franche-comté;27;Bourgogne-Franche-Comté;Gigny;270
les hays;46.908635733;5.39126767;jura;39;bourgogne-franche-comté;27;Bourgogne-Franche-Comté;Les Hays;347
ivory;46.899110215;5.849311438;jura;39;bourgogne-franche-comté;27;Bourgogne-Franche-Comté;Ivory;92
larrivoire;46.339008848;5.787878066;jura;39;bourgogne-franche-comté;27;Bourgogne-Franche-Comté;Larrivoire;105
valzin en petite montagne;46.431656241;5.585594549;jura;39;bourgogne-franche-comté;27;Bourgogne-Franche-Comté;Valzin en Petite Montagne;456
longchaumois;46.463174814;5.963032775;jura;39;bourgogne-franche-comté;27;Bourgogne-Franche-Comté;Longchaumois;1130
lons le saunier;46.674816281;5.557754161;jura;39;bourgogne-franche-comté;27;Bourgogne-Franche-Comté;Lons-le-Saunier;17043
malange;47.183846224;5.614911678;jura;39;bourgogne-franche-comté;27;Bourgogne-Franche-Comté;Malange;321
mantry;46.794726176;5.555211245;jura;39;bourgogne-franche-comté;27;Bourgogne-Franche-Comté;Mantry;476
marigna sur valouse;46.446461908;5.528323143;jura;39;bourgogne-franche-comté;27;Bourgogne-Franche-Comté;Marigna-sur-Valouse;108
marigny;46.679329287;5.777720172;jura;39;bourgogne-franche-comté;27;Bourgogne-Franche-Comté;Marigny;215
mathenay;46.929764738;5.679439534;jura;39;bourgogne-franche-comté;27;Bourgogne-Franche-Comté;Mathenay;144
mesnois;46.594424045;5.676992017;jura;39;bourgogne-franche-comté;27;Bourgogne-Franche-Comté;Mesnois;175
messia sur sorne;46.663781838;5.515367551;jura;39;bourgogne-franche-comté;27;Bourgogne-Franche-Comté;Messia-sur-Sorne;870
mieges;46.789982519;6.051455026;jura;39;bourgogne-franche-comté;27;Bourgogne-Franche-Comté;Mièges;167
moissey;47.188453105;5.532434426;jura;39;bourgogne-franche-comté;27;Bourgogne-Franche-Comté;Moissey;568
chassal molinges;46.357518899;5.778193947;jura;39;bourgogne-franche-comté;27;Bourgogne-Franche-Comté;Chassal-Molinges;1128
monnetay;46.457979807;5.511419574;jura;39;bourgogne-franche-comté;27;Bourgogne-Franche-Comté;Monnetay;16
montain;46.72079781;5.577984309;jura;39;bourgogne-franche-comté;27;Bourgogne-Franche-Comté;Montain;488
hauts de bienne;46.514383984;5.995902986;jura;39;bourgogne-franche-comté;27;Bourgogne-Franche-Comté;Hauts de Bienne;5167
mouchard;46.977657836;5.789685614;jura;39;bourgogne-franche-comté;27;Bourgogne-Franche-Comté;Mouchard;1093
moutonne;46.52992345;5.566253083;jura;39;bourgogne-franche-comté;27;Bourgogne-Franche-Comté;Moutonne;128
nance;46.748424371;5.422699141;jura;39;bourgogne-franche-comté;27;Bourgogne-Franche-Comté;Nance;532
neublans abergement;46.904215976;5.339167367;jura;39;bourgogne-franche-comté;27;Bourgogne-Franche-Comté;Neublans-Abergement;542
nozeroy;46.770131675;6.036061654;jura;39;bourgogne-franche-comté;27;Bourgogne-Franche-Comté;Nozeroy;395
our;47.107219545;5.648897421;jura;39;bourgogne-franche-comté;27;Bourgogne-Franche-Comté;Our;149
le pasquier;46.798222911;5.897069634;jura;39;bourgogne-franche-comté;27;Bourgogne-Franche-Comté;Le Pasquier;276
patornay;46.587333549;5.709553322;jura;39;bourgogne-franche-comté;27;Bourgogne-Franche-Comté;Patornay;154
peintre;47.197841354;5.473005162;jura;39;bourgogne-franche-comté;27;Bourgogne-Franche-Comté;Peintre;134
pimorin;46.496029783;5.500632464;jura;39;bourgogne-franche-comté;27;Bourgogne-Franche-Comté;Pimorin;206
plainoiseau;46.725144633;5.555650076;jura;39;bourgogne-franche-comté;27;Bourgogne-Franche-Comté;Plainoiseau;515
pont de poitte;46.572002783;5.68755453;jura;39;bourgogne-franche-comté;27;Bourgogne-Franche-Comté;Pont-de-Poitte;626
pont d hery;46.87660733;5.899130373;jura;39;bourgogne-franche-comté;27;Bourgogne-Franche-Comté;Pont-d'Héry;239
presilly;46.557250928;5.581948101;jura;39;bourgogne-franche-comté;27;Bourgogne-Franche-Comté;Présilly;116
pretin;46.931565447;5.835326207;jura;39;bourgogne-franche-comté;27;Bourgogne-Franche-Comté;Pretin;56
pupillin;46.87631303;5.751864403;jura;39;bourgogne-franche-comté;27;Bourgogne-Franche-Comté;Pupillin;247
quintigny;46.734446112;5.523936248;jura;39;bourgogne-franche-comté;27;Bourgogne-Franche-Comté;Quintigny;282
rainans;47.157753345;5.473721798;jura;39;bourgogne-franche-comté;27;Bourgogne-Franche-Comté;Rainans;260
rye;46.880519205;5.425733112;jura;39;bourgogne-franche-comté;27;Bourgogne-Franche-Comté;Rye;213
st aubin;47.032617038;5.333128565;jura;39;bourgogne-franche-comté;27;Bourgogne-Franche-Comté;Saint-Aubin;1840
st germain en montagne;46.77921262;5.937871342;jura;39;bourgogne-franche-comté;27;Bourgogne-Franche-Comté;Saint-Germain-en-Montagne;385
st lamain;46.804267629;5.597646331;jura;39;bourgogne-franche-comté;27;Bourgogne-Franche-Comté;Saint-Lamain;113
st laurent en grandvaux;46.56967647;5.962581102;jura;39;bourgogne-franche-comté;27;Bourgogne-Franche-Comté;Saint-Laurent-en-Grandvaux;1820
st loup;46.99639813;5.305116218;jura;39;bourgogne-franche-comté;27;Bourgogne-Franche-Comté;Saint-Loup;241
st pierre;46.568212339;5.903128161;jura;39;bourgogne-franche-comté;27;Bourgogne-Franche-Comté;Saint-Pierre;365
st thiebaud;46.971606636;5.879766021;jura;39;bourgogne-franche-comté;27;Bourgogne-Franche-Comté;Saint-Thiébaud;71
saizenay;46.967964379;5.9286458920000005;jura;39;bourgogne-franche-comté;27;Bourgogne-Franche-Comté;Saizenay;96
seligney;46.944742626;5.54086847;jura;39;bourgogne-franche-comté;27;Bourgogne-Franche-Comté;Séligney;78
supt;46.85419612;5.981511174;jura;39;bourgogne-franche-comté;27;Bourgogne-Franche-Comté;Supt;106
syam;46.696810431;5.951906666;jura;39;bourgogne-franche-comté;27;Bourgogne-Franche-Comté;Syam;185
tavaux;47.037624924;5.402858802;jura;39;bourgogne-franche-comté;27;Bourgogne-Franche-Comté;Tavaux;3923
thesy;46.904808449;5.929312164;jura;39;bourgogne-franche-comté;27;Bourgogne-Franche-Comté;Thésy;65
thoirette coisia;46.291657094;5.518713624;jura;39;bourgogne-franche-comté;27;Bourgogne-Franche-Comté;Thoirette-Coisia;831
vadans;46.938400986;5.70563838;jura;39;bourgogne-franche-comté;27;Bourgogne-Franche-Comté;Vadans;304
valempoulieres;46.828094158;5.873941085;jura;39;bourgogne-franche-comté;27;Bourgogne-Franche-Comté;Valempoulières;197
vannoz;46.773442847;5.912066795;jura;39;bourgogne-franche-comté;27;Bourgogne-Franche-Comté;Vannoz;219
le vaudioux;46.687569019;5.928396074;jura;39;bourgogne-franche-comté;27;Bourgogne-Franche-Comté;Le Vaudioux;168
vaux sur poligny;46.82299081;5.7271541290000005;jura;39;bourgogne-franche-comté;27;Bourgogne-Franche-Comté;Vaux-sur-Poligny;77
vernantois;46.627807899;5.578234652;jura;39;bourgogne-franche-comté;27;Bourgogne-Franche-Comté;Vernantois;291
vescles;46.358013539;5.611305625;jura;39;bourgogne-franche-comté;27;Bourgogne-Franche-Comté;Vescles;184
vevy;46.666549203;5.663880123;jura;39;bourgogne-franche-comté;27;Bourgogne-Franche-Comté;Vevy;303
villards d heria;46.406275962;5.73542808;jura;39;bourgogne-franche-comté;27;Bourgogne-Franche-Comté;Villards-d'Héria;385
villeneuve sous pymont;46.69523902;5.552303453;jura;39;bourgogne-franche-comté;27;Bourgogne-Franche-Comté;Villeneuve-sous-Pymont;294
villers farlay;46.993775096;5.760324831;jura;39;bourgogne-franche-comté;27;Bourgogne-Franche-Comté;Villers-Farlay;664
voiteur;46.743655872;5.602606518;jura;39;bourgogne-franche-comté;27;Bourgogne-Franche-Comté;Voiteur;784
vriange;47.18360525;5.584358464;jura;39;bourgogne-franche-comté;27;Bourgogne-Franche-Comté;Vriange;161
ahuy;47.371214576;5.020496119;côte-d'or;21;bourgogne-franche-comté;27;Bourgogne-Franche-Comté;Ahuy;1584
aignay le duc;47.671659569;4.751193926;côte-d'or;21;bourgogne-franche-comté;27;Bourgogne-Franche-Comté;Aignay-le-Duc;265
allerey;47.19024207;4.420607175;côte-d'or;21;bourgogne-franche-comté;27;Bourgogne-Franche-Comté;Allerey;177
aloxe corton;47.068008045;4.86156952;côte-d'or;21;bourgogne-franche-comté;27;Bourgogne-Franche-Comté;Aloxe-Corton;134
antigny la ville;47.101459482;4.559930499;côte-d'or;21;bourgogne-franche-comté;27;Bourgogne-Franche-Comté;Antigny-la-Ville;89
arceau;47.376096012;5.196336831;côte-d'or;21;bourgogne-franche-comté;27;Bourgogne-Franche-Comté;Arceau;1000
arnay sous vitteaux;47.437236808;4.498765424;côte-d'or;21;bourgogne-franche-comté;27;Bourgogne-Franche-Comté;Arnay-sous-Vitteaux;114
aubaine;47.130283617;4.733758442;côte-d'or;21;bourgogne-franche-comté;27;Bourgogne-Franche-Comté;Aubaine;89
avot;47.616734359;5.007235333;côte-d'or;21;bourgogne-franche-comté;27;Bourgogne-Franche-Comté;Avot;188
baulme la roche;47.347733364;4.793730043;côte-d'or;21;bourgogne-franche-comté;27;Bourgogne-Franche-Comté;Baulme-la-Roche;90
bellenot sous pouilly;47.286821843;4.546193821;côte-d'or;21;bourgogne-franche-comté;27;Bourgogne-Franche-Comté;Bellenot-sous-Pouilly;222
bessey en chaume;47.088015422;4.742875853;côte-d'or;21;bourgogne-franche-comté;27;Bourgogne-Franche-Comté;Bessey-en-Chaume;122
bessey les citeaux;47.145631552;5.147537611;côte-d'or;21;bourgogne-franche-comté;27;Bourgogne-Franche-Comté;Bessey-lès-Cîteaux;687
bissey la cote;47.912010101;4.706966857;côte-d'or;21;bourgogne-franche-comté;27;Bourgogne-Franche-Comté;Bissey-la-Côte;132
bissey la pierre;47.843100453;4.426207708;côte-d'or;21;bourgogne-franche-comté;27;Bourgogne-Franche-Comté;Bissey-la-Pierre;71
source seine;47.488803885;4.696760719;côte-d'or;21;bourgogne-franche-comté;27;Bourgogne-Franche-Comté;Source-Seine;61
bligny les beaune;46.981841328;4.83078393;côte-d'or;21;bourgogne-franche-comté;27;Bourgogne-Franche-Comté;Bligny-lès-Beaune;1258
bligny sur ouche;47.114906921;4.684266306;côte-d'or;21;bourgogne-franche-comté;27;Bourgogne-Franche-Comté;Bligny-sur-Ouche;812
bouix;47.899266371;4.468838468;côte-d'or;21;bourgogne-franche-comté;27;Bourgogne-Franche-Comté;Bouix;149
brain;47.463090644;4.505321596;côte-d'or;21;bourgogne-franche-comté;27;Bourgogne-Franche-Comté;Brain;35
braux;47.410359424;4.418554279;côte-d'or;21;bourgogne-franche-comté;27;Bourgogne-Franche-Comté;Braux;170
brianny;47.412152598;4.374237142;côte-d'or;21;bourgogne-franche-comté;27;Bourgogne-Franche-Comté;Brianny;108
buffon;47.656080482;4.274404797;côte-d'or;21;bourgogne-franche-comté;27;Bourgogne-Franche-Comté;Buffon;156
cessey sur tille;47.282556445;5.229085175;côte-d'or;21;bourgogne-franche-comté;27;Bourgogne-Franche-Comté;Cessey-sur-Tille;613
chailly sur armancon;47.273253678;4.477709;côte-d'or;21;bourgogne-franche-comté;27;Bourgogne-Franche-Comté;Chailly-sur-Armançon;265
chambain;47.79513604;4.918708604;côte-d'or;21;bourgogne-franche-comté;27;Bourgogne-Franche-Comté;Chambain;21
chamesson;47.783268513;4.541453803;côte-d'or;21;bourgogne-franche-comté;27;Bourgogne-Franche-Comté;Chamesson;235
champ d oiseau;47.554443111;4.347541103;côte-d'or;21;bourgogne-franche-comté;27;Bourgogne-Franche-Comté;Champ-d'Oiseau;107
charmes;47.372195692;5.350008878;côte-d'or;21;bourgogne-franche-comté;27;Bourgogne-Franche-Comté;Charmes;120
charrey sur saone;47.099107946;5.154042673;côte-d'or;21;bourgogne-franche-comté;27;Bourgogne-Franche-Comté;Charrey-sur-Saône;337
chatillon sur seine;47.858369131;4.591958657;côte-d'or;21;bourgogne-franche-comté;27;Bourgogne-Franche-Comté;Châtillon-sur-Seine;5378
chaudenay le chateau;47.179758123;4.642522175;côte-d'or;21;bourgogne-franche-comté;27;Bourgogne-Franche-Comté;Chaudenay-le-Château;48
chaugey;47.745545857;4.949646789;côte-d'or;21;bourgogne-franche-comté;27;Bourgogne-Franche-Comté;Chaugey;21
chaumont le bois;47.933853839;4.593057339;côte-d'or;21;bourgogne-franche-comté;27;Bourgogne-Franche-Comté;Chaumont-le-Bois;78
valforet;47.245760939;4.866785936;côte-d'or;21;bourgogne-franche-comté;27;Bourgogne-Franche-Comté;Valforêt;312
clery;47.295734009;5.50123924;côte-d'or;21;bourgogne-franche-comté;27;Bourgogne-Franche-Comté;Cléry;156
collonges et premieres;47.228638946;5.291997765;côte-d'or;21;bourgogne-franche-comté;27;Bourgogne-Franche-Comté;Collonges-et-Premières;1062
combertault;46.99156924;4.903258281;côte-d'or;21;bourgogne-franche-comté;27;Bourgogne-Franche-Comté;Combertault;518
comblanchien;47.102585062;4.918586014;côte-d'or;21;bourgogne-franche-comté;27;Bourgogne-Franche-Comté;Comblanchien;604
commarin;47.249135548;4.652508683;côte-d'or;21;bourgogne-franche-comté;27;Bourgogne-Franche-Comté;Commarin;121
corpoyer la chapelle;47.548960885;4.609722066;côte-d'or;21;bourgogne-franche-comté;27;Bourgogne-Franche-Comté;Corpoyer-la-Chapelle;35
courtivron;47.534415573;4.95287413;côte-d'or;21;bourgogne-franche-comté;27;Bourgogne-Franche-Comté;Courtivron;160
crecey sur tille;47.570003665;5.141515403;côte-d'or;21;bourgogne-franche-comté;27;Bourgogne-Franche-Comté;Crécey-sur-Tille;125
curley;47.203708131;4.910342158;côte-d'or;21;bourgogne-franche-comté;27;Bourgogne-Franche-Comté;Curley;135
dienay;47.521595466;5.059769608;côte-d'or;21;bourgogne-franche-comté;27;Bourgogne-Franche-Comté;Diénay;380
dijon;47.322850621;5.037471304;côte-d'or;21;bourgogne-franche-comté;27;Bourgogne-Franche-Comté;Dijon;159346
eguilly;47.301451523;4.500483593;côte-d'or;21;bourgogne-franche-comté;27;Bourgogne-Franche-Comté;Éguilly;70
eringes;47.588539264;4.467532468;côte-d'or;21;bourgogne-franche-comté;27;Bourgogne-Franche-Comté;Éringes;57
etalante;47.629318672;4.766439896;côte-d'or;21;bourgogne-franche-comté;27;Bourgogne-Franche-Comté;Étalante;127
etevaux;47.323005489;5.322056752;côte-d'or;21;bourgogne-franche-comté;27;Bourgogne-Franche-Comté;Étevaux;313
etormay;47.597679495;4.581363598;côte-d'or;21;bourgogne-franche-comté;27;Bourgogne-Franche-Comté;Étormay;67
faverolles les lucey;47.827429144;4.866005642;côte-d'or;21;bourgogne-franche-comté;27;Bourgogne-Franche-Comté;Faverolles-lès-Lucey;29
flacey;47.434258335;5.135486762;côte-d'or;21;bourgogne-franche-comté;27;Bourgogne-Franche-Comté;Flacey;204
flavigny sur ozerain;47.509014232;4.518814817;côte-d'or;21;bourgogne-franche-comté;27;Bourgogne-Franche-Comté;Flavigny-sur-Ozerain;273
le val larrey;47.433067236;4.320016084;côte-d'or;21;bourgogne-franche-comté;27;Bourgogne-Franche-Comté;Le Val-Larrey;270
fleurey sur ouche;47.300305297;4.863873416;côte-d'or;21;bourgogne-franche-comté;27;Bourgogne-Franche-Comté;Fleurey-sur-Ouche;1466
foncegrive;47.617293647;5.143105989;côte-d'or;21;bourgogne-franche-comté;27;Bourgogne-Franche-Comté;Foncegrive;130
gevrey chambertin;47.220053292;4.982552955;côte-d'or;21;bourgogne-franche-comté;27;Bourgogne-Franche-Comté;Gevrey-Chambertin;3049
gilly les citeaux;47.17760782;4.997427841;côte-d'or;21;bourgogne-franche-comté;27;Bourgogne-Franche-Comté;Gilly-lès-Cîteaux;731
grancey le chateau neuvelle;47.673623157;5.024479447;côte-d'or;21;bourgogne-franche-comté;27;Bourgogne-Franche-Comté;Grancey-le-Château-Neuvelle;259
grancey sur ource;47.999372429;4.577357112;côte-d'or;21;bourgogne-franche-comté;27;Bourgogne-Franche-Comté;Grancey-sur-Ource;186
gresigny ste reine;47.551568194;4.496237286;côte-d'or;21;bourgogne-franche-comté;27;Bourgogne-Franche-Comté;Grésigny-Sainte-Reine;145
jouey;47.158291874;4.43763018;côte-d'or;21;bourgogne-franche-comté;27;Bourgogne-Franche-Comté;Jouey;189
jours les baigneux;47.625090219;4.604121726;côte-d'or;21;bourgogne-franche-comté;27;Bourgogne-Franche-Comté;Jours-lès-Baigneux;81
juillenay;47.361757374;4.271783053;côte-d'or;21;bourgogne-franche-comté;27;Bourgogne-Franche-Comté;Juillenay;51
labergement les auxonne;47.159922549;5.379729648;côte-d'or;21;bourgogne-franche-comté;27;Bourgogne-Franche-Comté;Labergement-lès-Auxonne;338
lamargelle;47.520315127;4.837284317;côte-d'or;21;bourgogne-franche-comté;27;Bourgogne-Franche-Comté;Lamargelle;151
lantenay;47.34391981;4.865525397;côte-d'or;21;bourgogne-franche-comté;27;Bourgogne-Franche-Comté;Lantenay;505
laperriere sur saone;47.106852648;5.345970133;côte-d'or;21;bourgogne-franche-comté;27;Bourgogne-Franche-Comté;Laperrière-sur-Saône;426
larrey;47.897111685;4.424910489;côte-d'or;21;bourgogne-franche-comté;27;Bourgogne-Franche-Comté;Larrey;96
longeault pluvault;47.211203965;5.246810478;côte-d'or;21;bourgogne-franche-comté;27;Bourgogne-Franche-Comté;Longeault-Pluvault;1148
lucey;47.852249374;4.862922237;côte-d'or;21;bourgogne-franche-comté;27;Bourgogne-Franche-Comté;Lucey;57
magny lambert;47.679433815;4.585917585;côte-d'or;21;bourgogne-franche-comté;27;Bourgogne-Franche-Comté;Magny-Lambert;82
magny les aubigny;47.111881596;5.169002847;côte-d'or;21;bourgogne-franche-comté;27;Bourgogne-Franche-Comté;Magny-lès-Aubigny;219
maisey le duc;47.845075059;4.675938717;côte-d'or;21;bourgogne-franche-comté;27;Bourgogne-Franche-Comté;Maisey-le-Duc;78
marcellois;47.348892074;4.6158959710000005;côte-d'or;21;bourgogne-franche-comté;27;Bourgogne-Franche-Comté;Marcellois;45
marigny les reullee;47.008430095;4.95773717;côte-d'or;21;bourgogne-franche-comté;27;Bourgogne-Franche-Comté;Marigny-lès-Reullée;218
mavilly mandelot;47.060963164;4.730776438;côte-d'or;21;bourgogne-franche-comté;27;Bourgogne-Franche-Comté;Mavilly-Mandelot;173
merceuil;46.953949309;4.848345096;côte-d'or;21;bourgogne-franche-comté;27;Bourgogne-Franche-Comté;Merceuil;805
millery;47.513640521;4.317826038;côte-d'or;21;bourgogne-franche-comté;27;Bourgogne-Franche-Comté;Millery;408
moitron;47.681931213;4.808446076;côte-d'or;21;bourgogne-franche-comté;27;Bourgogne-Franche-Comté;Moitron;56
montagny les beaune;46.985757587;4.853444653;côte-d'or;21;bourgogne-franche-comté;27;Bourgogne-Franche-Comté;Montagny-lès-Beaune;764
montlay en auxois;47.331568537;4.267753395;côte-d'or;21;bourgogne-franche-comté;27;Bourgogne-Franche-Comté;Montlay-en-Auxois;194
montoillot;47.27226081;4.657937913;côte-d'or;21;bourgogne-franche-comté;27;Bourgogne-Franche-Comté;Montoillot;93
mont st jean;47.28565988;4.411433989;côte-d'or;21;bourgogne-franche-comté;27;Bourgogne-Franche-Comté;Mont-Saint-Jean;246
moutiers st jean;47.562129289;4.225073082;côte-d'or;21;bourgogne-franche-comté;27;Bourgogne-Franche-Comté;Moutiers-Saint-Jean;256
neuilly crimolois;47.273535518;5.112727427;côte-d'or;21;bourgogne-franche-comté;27;Bourgogne-Franche-Comté;Neuilly-Crimolois;3146
nod sur seine;47.77285353;4.59824463;côte-d'or;21;bourgogne-franche-comté;27;Bourgogne-Franche-Comté;Nod-sur-Seine;204
noiron sous gevrey;47.188864915;5.08508035;côte-d'or;21;bourgogne-franche-comté;27;Bourgogne-Franche-Comté;Noiron-sous-Gevrey;1146
nuits st georges;47.14659194;4.938547235;côte-d'or;21;bourgogne-franche-comté;27;Bourgogne-Franche-Comté;Nuits-Saint-Georges;5309
orgeux;47.364558205;5.15151447;côte-d'or;21;bourgogne-franche-comté;27;Bourgogne-Franche-Comté;Orgeux;451
orret;47.60887188;4.701250579;côte-d'or;21;bourgogne-franche-comté;27;Bourgogne-Franche-Comté;Orret;14
orville;47.560887274;5.217741354;côte-d'or;21;bourgogne-franche-comté;27;Bourgogne-Franche-Comté;Orville;173
pasques;47.377799819;4.851793;côte-d'or;21;bourgogne-franche-comté;27;Bourgogne-Franche-Comté;Pasques;284
poiseul les saulx;47.577930533;4.98200027;côte-d'or;21;bourgogne-franche-comté;27;Bourgogne-Franche-Comté;Poiseul-lès-Saulx;72
pontailler sur saone;47.30183098;5.412855754;côte-d'or;21;bourgogne-franche-comté;27;Bourgogne-Franche-Comté;Pontailler-sur-Saône;1291
pont et massene;47.469033929;4.358028888;côte-d'or;21;bourgogne-franche-comté;27;Bourgogne-Franche-Comté;Pont-et-Massène;177
posanges;47.421600843;4.526209252;côte-d'or;21;bourgogne-franche-comté;27;Bourgogne-Franche-Comté;Posanges;50
pouillenay;47.503297238;4.460638979;côte-d'or;21;bourgogne-franche-comté;27;Bourgogne-Franche-Comté;Pouillenay;574
precy sous thil;47.401240858;4.3167685;côte-d'or;21;bourgogne-franche-comté;27;Bourgogne-Franche-Comté;Précy-sous-Thil;712
puligny montrachet;46.947091788;4.759109401;côte-d'or;21;bourgogne-franche-comté;27;Bourgogne-Franche-Comté;Puligny-Montrachet;366
remilly en montagne;47.290328508;4.729283169;côte-d'or;21;bourgogne-franche-comté;27;Bourgogne-Franche-Comté;Remilly-en-Montagne;153
reulle vergy;47.188519649;4.8964774040000005;côte-d'or;21;bourgogne-franche-comté;27;Bourgogne-Franche-Comté;Reulle-Vergy;158
riel les eaux;47.98893583;4.680413288;côte-d'or;21;bourgogne-franche-comté;27;Bourgogne-Franche-Comté;Riel-les-Eaux;90
la roche en brenil;47.381808962;4.171292015;côte-d'or;21;bourgogne-franche-comté;27;Bourgogne-Franche-Comté;La Roche-en-Brenil;900
saffres;47.366544356;4.580822499;côte-d'or;21;bourgogne-franche-comté;27;Bourgogne-Franche-Comté;Saffres;118
st germain le rocheux;47.755701686;4.66250177;côte-d'or;21;bourgogne-franche-comté;27;Bourgogne-Franche-Comté;Saint-Germain-le-Rocheux;82
st pierre en vaux;47.056499669;4.529292945;côte-d'or;21;bourgogne-franche-comté;27;Bourgogne-Franche-Comté;Saint-Pierre-en-Vaux;138
st remy;47.651551426;4.301138244;côte-d'or;21;bourgogne-franche-comté;27;Bourgogne-Franche-Comté;Saint-Rémy;684
ste sabine;47.187339843;4.621206885;côte-d'or;21;bourgogne-franche-comté;27;Bourgogne-Franche-Comté;Sainte-Sabine;172
st seine en bache;47.116270528;5.377231654;côte-d'or;21;bourgogne-franche-comté;27;Bourgogne-Franche-Comté;Saint-Seine-en-Bâche;402
samerey;47.089991272;5.364989001;côte-d'or;21;bourgogne-franche-comté;27;Bourgogne-Franche-Comté;Samerey;138
saulon la rue;47.226273938;5.049911015;côte-d'or;21;bourgogne-franche-comté;27;Bourgogne-Franche-Comté;Saulon-la-Rue;713
saulx le duc;47.55047575;5.021936931;côte-d'or;21;bourgogne-franche-comté;27;Bourgogne-Franche-Comté;Saulx-le-Duc;248
savigny le sec;47.433787821;5.042452703;côte-d'or;21;bourgogne-franche-comté;27;Bourgogne-Franche-Comté;Savigny-le-Sec;863
savilly;47.121776524;4.278323511;côte-d'or;21;bourgogne-franche-comté;27;Bourgogne-Franche-Comté;Savilly;79
savolles;47.377255728;5.275276086;côte-d'or;21;bourgogne-franche-comté;27;Bourgogne-Franche-Comté;Savolles;152
selongey;47.594872957;5.199699518;côte-d'or;21;bourgogne-franche-comté;27;Bourgogne-Franche-Comté;Selongey;2393
soirans;47.210269406;5.298465765;côte-d'or;21;bourgogne-franche-comté;27;Bourgogne-Franche-Comté;Soirans;502
soussey sur brionne;47.326939684;4.533826433;côte-d'or;21;bourgogne-franche-comté;27;Bourgogne-Franche-Comté;Soussey-sur-Brionne;161
sussey;47.214701115;4.372495889;côte-d'or;21;bourgogne-franche-comté;27;Bourgogne-Franche-Comté;Sussey;241
tailly;46.965383102;4.817096603;côte-d'or;21;bourgogne-franche-comté;27;Bourgogne-Franche-Comté;Tailly;196
tellecey;47.290368051;5.298321457;côte-d'or;21;bourgogne-franche-comté;27;Bourgogne-Franche-Comté;Tellecey;142
ternant;47.200068883;4.833483748;côte-d'or;21;bourgogne-franche-comté;27;Bourgogne-Franche-Comté;Ternant;83
thoires;47.941219611;4.682348955;côte-d'or;21;bourgogne-franche-comté;27;Bourgogne-Franche-Comté;Thoires;62
thury;47.028255345;4.527385032;côte-d'or;21;bourgogne-franche-comté;27;Bourgogne-Franche-Comté;Thury;254
tillenay;47.18956268;5.351594816;côte-d'or;21;bourgogne-franche-comté;27;Bourgogne-Franche-Comté;Tillenay;736
trouhaut;47.391005002;4.763312049;côte-d'or;21;bourgogne-franche-comté;27;Bourgogne-Franche-Comté;Trouhaut;128
urcy;47.264348371;4.846753784;côte-d'or;21;bourgogne-franche-comté;27;Bourgogne-Franche-Comté;Urcy;145
vannaire;47.915596751;4.5698607540000005;côte-d'or;21;bourgogne-franche-comté;27;Bourgogne-Franche-Comté;Vannaire;50
vanvey;47.841883898;4.72633461;côte-d'or;21;bourgogne-franche-comté;27;Bourgogne-Franche-Comté;Vanvey;235
velars sur ouche;47.31841782;4.909254473;côte-d'or;21;bourgogne-franche-comté;27;Bourgogne-Franche-Comté;Velars-sur-Ouche;1808
vic sous thil;47.366958331;4.317209988;côte-d'or;21;bourgogne-franche-comté;27;Bourgogne-Franche-Comté;Vic-sous-Thil;183
vielverge;47.267919458;5.452905452;côte-d'or;21;bourgogne-franche-comté;27;Bourgogne-Franche-Comté;Vielverge;504
villars fontaine;47.149574973;4.901042971;côte-d'or;21;bourgogne-franche-comté;27;Bourgogne-Franche-Comté;Villars-Fontaine;114
villars et villenotte;47.508690789;4.378889697;côte-d'or;21;bourgogne-franche-comté;27;Bourgogne-Franche-Comté;Villars-et-Villenotte;168
villecomte;47.499501248;5.018851336;côte-d'or;21;bourgogne-franche-comté;27;Bourgogne-Franche-Comté;Villecomte;245
la villeneuve les convers;47.575777126;4.591744222;côte-d'or;21;bourgogne-franche-comté;27;Bourgogne-Franche-Comté;La Villeneuve-les-Convers;63
villeneuve sous charigny;47.436145596;4.399624608;côte-d'or;21;bourgogne-franche-comté;27;Bourgogne-Franche-Comté;Villeneuve-sous-Charigny;92
villey sur tille;47.567744921;5.109382796;côte-d'or;21;bourgogne-franche-comté;27;Bourgogne-Franche-Comté;Villey-sur-Tille;259
villotte st seine;47.429718234;4.7130539670000005;côte-d'or;21;bourgogne-franche-comté;27;Bourgogne-Franche-Comté;Villotte-Saint-Seine;70
viserny;47.562369649;4.284225414;côte-d'or;21;bourgogne-franche-comté;27;Bourgogne-Franche-Comté;Viserny;179
vosne romanee;47.159707034;4.955601964;côte-d'or;21;bourgogne-franche-comté;27;Bourgogne-Franche-Comté;Vosne-Romanée;340
voulaines les templiers;47.830393641;4.7761407;côte-d'or;21;bourgogne-franche-comté;27;Bourgogne-Franche-Comté;Voulaines-les-Templiers;270
bony;49.990651457;3.220766101;aisne;02;hauts-de-france;32;Hauts-de-France;Bony;139
arc sur tille;47.338758397;5.200858874;côte-d'or;21;bourgogne-franche-comté;27;Bourgogne-Franche-Comté;Arc-sur-Tille;2600
bourg et comin;49.402887168;3.659773112;aisne;02;hauts-de-france;32;Hauts-de-France;Bourg-et-Comin;810
argilly;47.068592327;5.024747349;côte-d'or;21;bourgogne-franche-comté;27;Bourgogne-Franche-Comté;Argilly;539
bourguignon sous montbavin;49.529088286;3.537037569;aisne;02;hauts-de-france;32;Hauts-de-France;Bourguignon-sous-Montbavin;152
aubigny en plaine;47.127737411;5.164587968;côte-d'or;21;bourgogne-franche-comté;27;Bourgogne-Franche-Comté;Aubigny-en-Plaine;547
brasles;49.057012938;3.42403027;aisne;02;hauts-de-france;32;Hauts-de-France;Brasles;1635
auxonne;47.188769135;5.414341888;côte-d'or;21;bourgogne-franche-comté;27;Bourgogne-Franche-Comté;Auxonne;7602
bray st christophe;49.774144853;3.141582586;aisne;02;hauts-de-france;32;Hauts-de-France;Bray-Saint-Christophe;67
beaulieu;47.725468508;4.733641886;côte-d'or;21;bourgogne-franche-comté;27;Bourgogne-Franche-Comté;Beaulieu;26
brecy;49.140371179;3.423549684;aisne;02;hauts-de-france;32;Hauts-de-France;Brécy;319
beaumont sur vingeanne;47.462096204;5.347585709;côte-d'or;21;bourgogne-franche-comté;27;Bourgogne-Franche-Comté;Beaumont-sur-Vingeanne;199
breny;49.184262001;3.350004368;aisne;02;hauts-de-france;32;Hauts-de-France;Breny;228
beaune;47.025576567;4.837332378;côte-d'or;21;bourgogne-franche-comté;27;Bourgogne-Franche-Comté;Beaune;20032
buire;49.907619378;4.056800114;aisne;02;hauts-de-france;32;Hauts-de-France;Buire;849
beire le chatel;47.417985549;5.213578936;côte-d'or;21;bourgogne-franche-comté;27;Bourgogne-Franche-Comté;Beire-le-Châtel;896
buzancy;49.310243779;3.347968795;aisne;02;hauts-de-france;32;Hauts-de-France;Buzancy;192
belleneuve;47.357498296;5.274054345;côte-d'or;21;bourgogne-franche-comté;27;Bourgogne-Franche-Comté;Belleneuve;1589
la capelle;49.973535545;3.913302584;aisne;02;hauts-de-france;32;Hauts-de-France;La Capelle;1769
benoisey;47.576889187;4.394799063;côte-d'or;21;bourgogne-franche-comté;27;Bourgogne-Franche-Comté;Benoisey;101
caulaincourt;49.864831923;3.111035178;aisne;02;hauts-de-france;32;Hauts-de-France;Caulaincourt;142
beurizot;47.355565978;4.496175516;côte-d'or;21;bourgogne-franche-comté;27;Bourgogne-Franche-Comté;Beurizot;118
cessieres suzy;49.558013373;3.48118285;aisne;02;hauts-de-france;32;Hauts-de-France;Cessières-Suzy;785
bevy;47.181886714;4.839545062;côte-d'or;21;bourgogne-franche-comté;27;Bourgogne-Franche-Comté;Bévy;136
chavigny;49.423064084;3.305405211;aisne;02;hauts-de-france;32;Hauts-de-France;Chavigny;165
beze;47.466173935;5.279200729;côte-d'or;21;bourgogne-franche-comté;27;Bourgogne-Franche-Comté;Bèze;721
chermizy ailles;49.463497769;3.720222977;aisne;02;hauts-de-france;32;Hauts-de-France;Chermizy-Ailles;115
billey;47.142403316;5.419333695;côte-d'or;21;bourgogne-franche-comté;27;Bourgogne-Franche-Comté;Billey;250
chevregny;49.465725095;3.593387726;aisne;02;hauts-de-france;32;Hauts-de-France;Chevregny;185
billy les chanceaux;47.552807572;4.734849153;côte-d'or;21;bourgogne-franche-comté;27;Bourgogne-Franche-Comté;Billy-lès-Chanceaux;68
clamecy;49.428547607;3.363807361;aisne;02;hauts-de-france;32;Hauts-de-France;Clamecy;233
blaisy bas;47.369429248;4.735378967;côte-d'or;21;bourgogne-franche-comté;27;Bourgogne-Franche-Comté;Blaisy-Bas;651
blancey;47.302443521;4.45981531;côte-d'or;21;bourgogne-franche-comté;27;Bourgogne-Franche-Comté;Blancey;56
bonnencontre;47.086560546;5.142300288;côte-d'or;21;bourgogne-franche-comté;27;Bourgogne-Franche-Comté;Bonnencontre;432
boussey;47.361381554;4.5415981940000005;côte-d'or;21;bourgogne-franche-comté;27;Bourgogne-Franche-Comté;Boussey;36
bremur et vaurois;47.729556831;4.609263197;côte-d'or;21;bourgogne-franche-comté;27;Bourgogne-Franche-Comté;Brémur-et-Vaurois;43
brognon;47.410459987;5.167987771;côte-d'or;21;bourgogne-franche-comté;27;Bourgogne-Franche-Comté;Brognon;318
buncey;47.817618901;4.5768700110000005;côte-d'or;21;bourgogne-franche-comté;27;Bourgogne-Franche-Comté;Buncey;361
busseaut;47.738604881;4.652764477;côte-d'or;21;bourgogne-franche-comté;27;Bourgogne-Franche-Comté;Busseaut;47
busserotte et montenaille;47.662975953;4.979967455;côte-d'or;21;bourgogne-franche-comté;27;Bourgogne-Franche-Comté;Busserotte-et-Montenaille;29
la bussiere sur ouche;47.226645175;4.699258629;côte-d'or;21;bourgogne-franche-comté;27;Bourgogne-Franche-Comté;La Bussière-sur-Ouche;172
chaignay;47.47641997;5.059334299;côte-d'or;21;bourgogne-franche-comté;27;Bourgogne-Franche-Comté;Chaignay;508
chamboeuf;47.227547273;4.902611275;côte-d'or;21;bourgogne-franche-comté;27;Bourgogne-Franche-Comté;Chambœuf;395
champrenault;47.399897791;4.681078429;côte-d'or;21;bourgogne-franche-comté;27;Bourgogne-Franche-Comté;Champrenault;36
chanceaux;47.525457663;4.740473645;côte-d'or;21;bourgogne-franche-comté;27;Bourgogne-Franche-Comté;Chanceaux;210
charny;47.331625283;4.426160609;côte-d'or;21;bourgogne-franche-comté;27;Bourgogne-Franche-Comté;Charny;35
charrey sur seine;47.952829103;4.53964668;côte-d'or;21;bourgogne-franche-comté;27;Bourgogne-Franche-Comté;Charrey-sur-Seine;134
chateauneuf;47.219410354;4.651494434;côte-d'or;21;bourgogne-franche-comté;27;Bourgogne-Franche-Comté;Châteauneuf;80
chaume et courchamp;47.580389843;5.360944654;côte-d'or;21;bourgogne-franche-comté;27;Bourgogne-Franche-Comté;Chaume-et-Courchamp;181
chazeuil;47.558356031;5.285555428;côte-d'or;21;bourgogne-franche-comté;27;Bourgogne-Franche-Comté;Chazeuil;188
chevannay;47.390913656;4.653419584;côte-d'or;21;bourgogne-franche-comté;27;Bourgogne-Franche-Comté;Chevannay;36
corberon;47.010419339;5.009086484;côte-d'or;21;bourgogne-franche-comté;27;Bourgogne-Franche-Comté;Corberon;435
corcelles les arts;46.945432822;4.796477767;côte-d'or;21;bourgogne-franche-comté;27;Bourgogne-Franche-Comté;Corcelles-les-Arts;436
corcelles les citeaux;47.169310047;5.083154661;côte-d'or;21;bourgogne-franche-comté;27;Bourgogne-Franche-Comté;Corcelles-lès-Cîteaux;829
corrombles;47.518072499;4.202946473;côte-d'or;21;bourgogne-franche-comté;27;Bourgogne-Franche-Comté;Corrombles;246
courban;47.916042505;4.739347962;côte-d'or;21;bourgogne-franche-comté;27;Bourgogne-Franche-Comté;Courban;143
crepand;47.607043299;4.310004284;côte-d'or;21;bourgogne-franche-comté;27;Bourgogne-Franche-Comté;Crépand;319
crugey;47.181364989;4.681666854;côte-d'or;21;bourgogne-franche-comté;27;Bourgogne-Franche-Comté;Crugey;167
cussy le chatel;47.164462236;4.584557496;côte-d'or;21;bourgogne-franche-comté;27;Bourgogne-Franche-Comté;Cussy-le-Châtel;119
daix;47.360475308;4.969138487;côte-d'or;21;bourgogne-franche-comté;27;Bourgogne-Franche-Comté;Daix;1529
detain et bruant;47.174737459;4.78765265;côte-d'or;21;bourgogne-franche-comté;27;Bourgogne-Franche-Comté;Détain-et-Bruant;143
drambon;47.33437116;5.379212117;côte-d'or;21;bourgogne-franche-comté;27;Bourgogne-Franche-Comté;Drambon;193
dree;47.343804139;4.695470345;côte-d'or;21;bourgogne-franche-comté;27;Bourgogne-Franche-Comté;Drée;64
duesme;47.636968721;4.693116012;côte-d'or;21;bourgogne-franche-comté;27;Bourgogne-Franche-Comté;Duesme;48
echevannes;47.54742268;5.160449294;côte-d'or;21;bourgogne-franche-comté;27;Bourgogne-Franche-Comté;Échevannes;308
essarois;47.757717838;4.794804435;côte-d'or;21;bourgogne-franche-comté;27;Bourgogne-Franche-Comté;Essarois;83
etais;47.701324785;4.439957105;côte-d'or;21;bourgogne-franche-comté;27;Bourgogne-Franche-Comté;Étais;75
etrochey;47.88918412;4.520031537;côte-d'or;21;bourgogne-franche-comté;27;Bourgogne-Franche-Comté;Étrochey;213
flagey echezeaux;47.159223964;4.982765188;côte-d'or;21;bourgogne-franche-comté;27;Bourgogne-Franche-Comté;Flagey-Echézeaux;507
foissy;47.125151368;4.552123433;côte-d'or;21;bourgogne-franche-comté;27;Bourgogne-Franche-Comté;Foissy;164
fontaines en duesmois;47.649509782;4.53489255;côte-d'or;21;bourgogne-franche-comté;27;Bourgogne-Franche-Comté;Fontaines-en-Duesmois;116
fontaine les dijon;47.347500029;5.024680391;côte-d'or;21;bourgogne-franche-comté;27;Bourgogne-Franche-Comté;Fontaine-lès-Dijon;8847
fussey;47.128563173;4.816944081;côte-d'or;21;bourgogne-franche-comté;27;Bourgogne-Franche-Comté;Fussey;119
genay;47.524548939;4.284428836;côte-d'or;21;bourgogne-franche-comté;27;Bourgogne-Franche-Comté;Genay;371
glanon;47.03994688;5.10704485;côte-d'or;21;bourgogne-franche-comté;27;Bourgogne-Franche-Comté;Glanon;271
griselles;47.875859681;4.366062352;côte-d'or;21;bourgogne-franche-comté;27;Bourgogne-Franche-Comté;Griselles;89
grosbois les tichey;47.009392203;5.23598254;côte-d'or;21;bourgogne-franche-comté;27;Bourgogne-Franche-Comté;Grosbois-lès-Tichey;70
abbans dessous;47.133644066;5.872795299;doubs;25;bourgogne-franche-comté;27;Bourgogne-Franche-Comté;Abbans-Dessous;246
gurgy le chateau;47.828585054;4.927911955;côte-d'or;21;bourgogne-franche-comté;27;Bourgogne-Franche-Comté;Gurgy-le-Château;46
abbevillers;47.427178279;6.922075563;doubs;25;bourgogne-franche-comté;27;Bourgogne-Franche-Comté;Abbévillers;1090
hauteville les dijon;47.375804434;4.980513731;côte-d'or;21;bourgogne-franche-comté;27;Bourgogne-Franche-Comté;Hauteville-lès-Dijon;1217
arc sous montenot;46.915171749;6.005864119;doubs;25;bourgogne-franche-comté;27;Bourgogne-Franche-Comté;Arc-sous-Montenot;225
heuilley sur saone;47.336140039;5.466019225;côte-d'or;21;bourgogne-franche-comté;27;Bourgogne-Franche-Comté;Heuilley-sur-Saône;322
autechaux roide;47.389276318;6.810998645;doubs;25;bourgogne-franche-comté;27;Bourgogne-Franche-Comté;Autechaux-Roide;507
jallanges;46.984532655;5.172618372;côte-d'or;21;bourgogne-franche-comté;27;Bourgogne-Franche-Comté;Jallanges;309
avanne aveney;47.201655108;5.9557621990000005;doubs;25;bourgogne-franche-comté;27;Bourgogne-Franche-Comté;Avanne-Aveney;2235
jancigny;47.383947105;5.422317798;côte-d'or;21;bourgogne-franche-comté;27;Bourgogne-Franche-Comté;Jancigny;148
baume les dames;47.354300319;6.34312446;doubs;25;bourgogne-franche-comté;27;Bourgogne-Franche-Comté;Baume-les-Dames;4991
labergement foigney;47.257486869;5.247621807;côte-d'or;21;bourgogne-franche-comté;27;Bourgogne-Franche-Comté;Labergement-Foigney;380
belleherbe;47.263740562;6.650637647;doubs;25;bourgogne-franche-comté;27;Bourgogne-Franche-Comté;Belleherbe;621
lantilly;47.542172647;4.378062518;côte-d'or;21;bourgogne-franche-comté;27;Bourgogne-Franche-Comté;Lantilly;100
belvoir;47.320330835;6.616289923;doubs;25;bourgogne-franche-comté;27;Bourgogne-Franche-Comté;Belvoir;92
lechatelet;47.053108372;5.142430626;côte-d'or;21;bourgogne-franche-comté;27;Bourgogne-Franche-Comté;Lechâtelet;227
berche;47.465980255;6.746962924;doubs;25;bourgogne-franche-comté;27;Bourgogne-Franche-Comté;Berche;541
lignerolles;47.902489216;4.887601319;côte-d'or;21;bourgogne-franche-comté;27;Bourgogne-Franche-Comté;Lignerolles;56
berthelange;47.201214992;5.780426556;doubs;25;bourgogne-franche-comté;27;Bourgogne-Franche-Comté;Berthelange;361
louesme;47.889336315;4.763793794;côte-d'or;21;bourgogne-franche-comté;27;Bourgogne-Franche-Comté;Louesme;114
besancon;47.255181494;6.019309828;doubs;25;bourgogne-franche-comté;27;Bourgogne-Franche-Comté;Besançon;119198
lux;47.488104094;5.217835902;côte-d'or;21;bourgogne-franche-comté;27;Bourgogne-Franche-Comté;Lux;508
blarians;47.411804323;6.178688683;doubs;25;bourgogne-franche-comté;27;Bourgogne-Franche-Comté;Blarians;54
maconge;47.225573152;4.577089304;côte-d'or;21;bourgogne-franche-comté;27;Bourgogne-Franche-Comté;Maconge;131
la bosse;47.1437117;6.64898873;doubs;25;bourgogne-franche-comté;27;Bourgogne-Franche-Comté;La Bosse;80
magny st medard;47.381144047;5.247393652;côte-d'or;21;bourgogne-franche-comté;27;Bourgogne-Franche-Comté;Magny-Saint-Médard;325
bouclans;47.244707947;6.235312183;doubs;25;bourgogne-franche-comté;27;Bourgogne-Franche-Comté;Bouclans;1060
malain;47.32078525;4.79419131;côte-d'or;21;bourgogne-franche-comté;27;Bourgogne-Franche-Comté;Mâlain;779
bournois;47.488558803;6.49702847;doubs;25;bourgogne-franche-comté;27;Bourgogne-Franche-Comté;Bournois;190
maligny;47.084238392;4.505907144;côte-d'or;21;bourgogne-franche-comté;27;Bourgogne-Franche-Comté;Maligny;175
boussieres;47.151628838;5.901267004;doubs;25;bourgogne-franche-comté;27;Bourgogne-Franche-Comté;Boussières;1188
marey les fussey;47.121976714;4.862683586;côte-d'or;21;bourgogne-franche-comté;27;Bourgogne-Franche-Comté;Marey-lès-Fussey;75
braillans;47.31222585;6.086497911;doubs;25;bourgogne-franche-comté;27;Bourgogne-Franche-Comté;Braillans;206
mont d origny;49.850896781;3.526844873;aisne;02;hauts-de-france;32;Hauts-de-France;Mont-d'Origny;826
marey sur tille;47.59417997;5.082084249;côte-d'or;21;bourgogne-franche-comté;27;Bourgogne-Franche-Comté;Marey-sur-Tille;327
breres;47.05776022;5.863897361;doubs;25;bourgogne-franche-comté;27;Bourgogne-Franche-Comté;Brères;72
montfaucon;48.946806275;3.432389762;aisne;02;hauts-de-france;32;Hauts-de-France;Montfaucon;208
marigny le cahouet;47.455503264;4.453561903;côte-d'or;21;bourgogne-franche-comté;27;Bourgogne-Franche-Comté;Marigny-le-Cahouët;319
bretonvillers;47.215946125;6.617164131;doubs;25;bourgogne-franche-comté;27;Bourgogne-Franche-Comté;Bretonvillers;289
montgobert;49.289955909;3.173881398;aisne;02;hauts-de-france;32;Hauts-de-France;Montgobert;200
marsannay le bois;47.44062342;5.096647574;côte-d'or;21;bourgogne-franche-comté;27;Bourgogne-Franche-Comté;Marsannay-le-Bois;841
brey et maison du bois;46.746807485;6.241344569;doubs;25;bourgogne-franche-comté;27;Bourgogne-Franche-Comté;Brey-et-Maison-du-Bois;171
montgru st hilaire;49.176189285;3.327121891;aisne;02;hauts-de-france;32;Hauts-de-France;Montgru-Saint-Hilaire;30
mauvilly;47.709396164;4.703644119;côte-d'or;21;bourgogne-franche-comté;27;Bourgogne-Franche-Comté;Mauvilly;68
cendrey;47.398298953;6.245193749;doubs;25;bourgogne-franche-comté;27;Bourgogne-Franche-Comté;Cendrey;197
monthiers;49.108710064;3.294180596;aisne;02;hauts-de-france;32;Hauts-de-France;Monthiers;155
meloisey;47.034824113;4.720225434;côte-d'or;21;bourgogne-franche-comté;27;Bourgogne-Franche-Comté;Meloisey;321
chalezeule;47.256765757;6.066057384;doubs;25;bourgogne-franche-comté;27;Bourgogne-Franche-Comté;Chalezeule;1329
montigny le franc;49.687518692;3.918828212;aisne;02;hauts-de-france;32;Hauts-de-France;Montigny-le-Franc;135
menessaire;47.133486414;4.152733668;côte-d'or;21;bourgogne-franche-comté;27;Bourgogne-Franche-Comté;Ménessaire;82
champagney;47.254901313;5.892782613;doubs;25;bourgogne-franche-comté;27;Bourgogne-Franche-Comté;Champagney;274
montigny sur crecy;49.7148469;3.583773712;aisne;02;hauts-de-france;32;Hauts-de-France;Montigny-sur-Crécy;292
molinot;47.010730075;4.580296019;côte-d'or;21;bourgogne-franche-comté;27;Bourgogne-Franche-Comté;Molinot;158
chapelle des bois;46.606943416;6.108095211;doubs;25;bourgogne-franche-comté;27;Bourgogne-Franche-Comté;Chapelle-des-Bois;260
mont st martin;49.274753931;3.64211898;aisne;02;hauts-de-france;32;Hauts-de-France;Mont-Saint-Martin;71
montceau et echarnant;47.061344853;4.666698056;côte-d'or;21;bourgogne-franche-comté;27;Bourgogne-Franche-Comté;Montceau-et-Écharnant;185
charquemont;47.201962155;6.842410599;doubs;25;bourgogne-franche-comté;27;Bourgogne-Franche-Comté;Charquemont;2835
morgny en thierache;49.754627779;4.076628621;aisne;02;hauts-de-france;32;Hauts-de-France;Morgny-en-Thiérache;104
mortiers;49.693082652;3.663838907;aisne;02;hauts-de-france;32;Hauts-de-France;Mortiers;182
montliot et courcelles;47.894650025;4.560212903;côte-d'or;21;bourgogne-franche-comté;27;Bourgogne-Franche-Comté;Montliot-et-Courcelles;295
chassagne st denis;47.083352652;6.111262051;doubs;25;bourgogne-franche-comté;27;Bourgogne-Franche-Comté;Chassagne-Saint-Denis;120
muscourt;49.35924231;3.743982155;aisne;02;hauts-de-france;32;Hauts-de-France;Muscourt;45
montmoyen;47.730124796;4.793899388;côte-d'or;21;bourgogne-franche-comté;27;Bourgogne-Franche-Comté;Montmoyen;73
la chaux;47.019312756;6.414706314;doubs;25;bourgogne-franche-comté;27;Bourgogne-Franche-Comté;La Chaux;609
nanteuil notre dame;49.190781658;3.412286837;aisne;02;hauts-de-france;32;Hauts-de-France;Nanteuil-Notre-Dame;77
mussy la fosse;47.52155977;4.44461305;côte-d'or;21;bourgogne-franche-comté;27;Bourgogne-Franche-Comté;Mussy-la-Fosse;92
chenecey buillon;47.138387489;5.974503724;doubs;25;bourgogne-franche-comté;27;Bourgogne-Franche-Comté;Chenecey-Buillon;502
la neuville en beine;49.676112934;3.156015287;aisne;02;hauts-de-france;32;Hauts-de-France;La Neuville-en-Beine;186
nantoux;47.034340011;4.759370439;côte-d'or;21;bourgogne-franche-comté;27;Bourgogne-Franche-Comté;Nantoux;167
la chevillotte;47.22051727;6.156411489;doubs;25;bourgogne-franche-comté;27;Bourgogne-Franche-Comté;La Chevillotte;152
neuville st amand;49.820937959;3.333707351;aisne;02;hauts-de-france;32;Hauts-de-France;Neuville-Saint-Amand;859
noidan;47.346351689;4.409463506;côte-d'or;21;bourgogne-franche-comté;27;Bourgogne-Franche-Comté;Noidan;80
chevroz;47.331321615;5.999890873;doubs;25;bourgogne-franche-comté;27;Bourgogne-Franche-Comté;Chevroz;136
neuville sur ailette;49.469077479;3.699581712;aisne;02;hauts-de-france;32;Hauts-de-France;Neuville-sur-Ailette;120
nolay;46.959088382;4.619842173;côte-d'or;21;bourgogne-franche-comté;27;Bourgogne-Franche-Comté;Nolay;1421
courcelles les montbeliard;47.49512739;6.78467435;doubs;25;bourgogne-franche-comté;27;Bourgogne-Franche-Comté;Courcelles-lès-Montbéliard;1405
neuville sur margival;49.454931094;3.39840909;aisne;02;hauts-de-france;32;Hauts-de-France;Neuville-sur-Margival;112
norges la ville;47.406804735;5.069716471;côte-d'or;21;bourgogne-franche-comté;27;Bourgogne-Franche-Comté;Norges-la-Ville;945
le crouzet;46.706754309;6.131650462;doubs;25;bourgogne-franche-comté;27;Bourgogne-Franche-Comté;Le Crouzet;61
neuvillette;49.855787614;3.468172172;aisne;02;hauts-de-france;32;Hauts-de-France;Neuvillette;191
normier;47.363309662;4.433731118;côte-d'or;21;bourgogne-franche-comté;27;Bourgogne-Franche-Comté;Normier;61
cuse et adrisans;47.483413505;6.389118261;doubs;25;bourgogne-franche-comté;27;Bourgogne-Franche-Comté;Cuse-et-Adrisans;285
nogentel;49.014110066;3.403964932;aisne;02;hauts-de-france;32;Hauts-de-France;Nogentel;1108
oisilly;47.416760566;5.361223298;côte-d'or;21;bourgogne-franche-comté;27;Bourgogne-Franche-Comté;Oisilly;124
dambelin;47.369184131;6.667526827;doubs;25;bourgogne-franche-comté;27;Bourgogne-Franche-Comté;Dambelin;501
noircourt;49.669567584;4.094762329;aisne;02;hauts-de-france;32;Hauts-de-France;Noircourt;73
ouges;47.260593121;5.078237298;côte-d'or;21;bourgogne-franche-comté;27;Bourgogne-Franche-Comté;Ouges;1604
dampierre les bois;47.50706732;6.915935431;doubs;25;bourgogne-franche-comté;27;Bourgogne-Franche-Comté;Dampierre-les-Bois;1577
nouvion le comte;49.707807719;3.460229955;aisne;02;hauts-de-france;32;Hauts-de-France;Nouvion-le-Comte;243
pagny la ville;47.057953156;5.16928445;côte-d'or;21;bourgogne-franche-comté;27;Bourgogne-Franche-Comté;Pagny-la-Ville;413
dompierre les tilleuls;46.886896327;6.163811583;doubs;25;bourgogne-franche-comté;27;Bourgogne-Franche-Comté;Dompierre-les-Tilleuls;299
nouvion le vineux;49.509683391;3.605346479;aisne;02;hauts-de-france;32;Hauts-de-France;Nouvion-le-Vineux;145
perrigny sur l ognon;47.305383229;5.463721936;côte-d'or;21;bourgogne-franche-comté;27;Bourgogne-Franche-Comté;Perrigny-sur-l'Ognon;636
dung;47.505908983;6.745592847;doubs;25;bourgogne-franche-comté;27;Bourgogne-Franche-Comté;Dung;613
nouvron vingre;49.433782177;3.1881099;aisne;02;hauts-de-france;32;Hauts-de-France;Nouvron-Vingré;201
pichanges;47.456030796;5.157946945;côte-d'or;21;bourgogne-franche-comté;27;Bourgogne-Franche-Comté;Pichanges;300
echevannes;47.070803178;6.236268823;doubs;25;bourgogne-franche-comté;27;Bourgogne-Franche-Comté;Échevannes;87
origny en thierache;49.886071205;4.011069622;aisne;02;hauts-de-france;32;Hauts-de-France;Origny-en-Thiérache;1382
planay;47.737114943;4.375149091;côte-d'or;21;bourgogne-franche-comté;27;Bourgogne-Franche-Comté;Planay;63
l ecouvotte;47.344156517;6.252960505;doubs;25;bourgogne-franche-comté;27;Bourgogne-Franche-Comté;L' Écouvotte;92
oulches la vallee foulon;49.431232244;3.740339532;aisne;02;hauts-de-france;32;Hauts-de-France;Oulches-la-Vallée-Foulon;84
poiseul la ville et laperriere;47.569545593;4.6641168440000005;côte-d'or;21;bourgogne-franche-comté;27;Bourgogne-Franche-Comté;Poiseul-la-Ville-et-Laperrière;155
epenouse;47.213281121;6.397455452;doubs;25;bourgogne-franche-comté;27;Bourgogne-Franche-Comté;Épenouse;167
oulchy la ville;49.209875672;3.341054952;aisne;02;hauts-de-france;32;Hauts-de-France;Oulchy-la-Ville;124
pommard;47.013018816;4.795570903;côte-d'or;21;bourgogne-franche-comté;27;Bourgogne-Franche-Comté;Pommard;443
esnans;47.333337341;6.323316241;doubs;25;bourgogne-franche-comté;27;Bourgogne-Franche-Comté;Esnans;64
oulchy le chateau;49.206838462;3.382242869;aisne;02;hauts-de-france;32;Hauts-de-France;Oulchy-le-Château;814
poncey sur l ignon;47.490542969;4.751955954;côte-d'or;21;bourgogne-franche-comté;27;Bourgogne-Franche-Comté;Poncey-sur-l'Ignon;84
etalans;47.165237266;6.253709669;doubs;25;bourgogne-franche-comté;27;Bourgogne-Franche-Comté;Étalans;1618
pont;47.178798233;5.324181172;côte-d'or;21;bourgogne-franche-comté;27;Bourgogne-Franche-Comté;Pont;159
etupes;47.506174565;6.87418589;doubs;25;bourgogne-franche-comté;27;Bourgogne-Franche-Comté;Étupes;3715
paars;49.330065715;3.603035232;aisne;02;hauts-de-france;32;Hauts-de-France;Paars;317
quincerot;47.617770535;4.271019567;côte-d'or;21;bourgogne-franche-comté;27;Bourgogne-Franche-Comté;Quincerot;78
flagey;47.047104227;6.111753757;doubs;25;bourgogne-franche-comté;27;Bourgogne-Franche-Comté;Flagey;137
paissy;49.426959295;3.702037259;aisne;02;hauts-de-france;32;Hauts-de-France;Paissy;78
quincey;47.107380027;4.972096449;côte-d'or;21;bourgogne-franche-comté;27;Bourgogne-Franche-Comté;Quincey;502
fontain;47.190482288;6.031784871;doubs;25;bourgogne-franche-comté;27;Bourgogne-Franche-Comté;Fontain;1211
pargnan;49.394062196;3.703341702;aisne;02;hauts-de-france;32;Hauts-de-France;Pargnan;66
quincy le vicomte;47.617086748;4.239671156;côte-d'or;21;bourgogne-franche-comté;27;Bourgogne-Franche-Comté;Quincy-le-Vicomte;200
frambouhans;47.200359222;6.777178435;doubs;25;bourgogne-franche-comté;27;Bourgogne-Franche-Comté;Frambouhans;889
pargny filain;49.463156372;3.53934125;aisne;02;hauts-de-france;32;Hauts-de-France;Pargny-Filain;255
la roche vanneau;47.470691149;4.529799124;côte-d'or;21;bourgogne-franche-comté;27;Bourgogne-Franche-Comté;La Roche-Vanneau;135
franois;47.225194306;5.925559392;doubs;25;bourgogne-franche-comté;27;Bourgogne-Franche-Comté;Franois;2260
passy en valois;49.162725907;3.184840116;aisne;02;hauts-de-france;32;Hauts-de-France;Passy-en-Valois;126
rougemont;47.670775251;4.257959812;côte-d'or;21;bourgogne-franche-comté;27;Bourgogne-Franche-Comté;Rougemont;143
geney;47.483089214;6.565421519;doubs;25;bourgogne-franche-comté;27;Bourgogne-Franche-Comté;Geney;122
pierremande;49.566317224;3.25862202;aisne;02;hauts-de-france;32;Hauts-de-France;Pierremande;251
rouvres en plaine;47.238213703;5.138972827;côte-d'or;21;bourgogne-franche-comté;27;Bourgogne-Franche-Comté;Rouvres-en-Plaine;1205
germondans;47.414083595;6.20027243;doubs;25;bourgogne-franche-comté;27;Bourgogne-Franche-Comté;Germondans;60
ruffey les beaune;47.021937506;4.92245563;côte-d'or;21;bourgogne-franche-comté;27;Bourgogne-Franche-Comté;Ruffey-lès-Beaune;747
glere;47.348257334;6.983756337;doubs;25;bourgogne-franche-comté;27;Bourgogne-Franche-Comté;Glère;185
sacquenay;47.584133252;5.321126276;côte-d'or;21;bourgogne-franche-comté;27;Bourgogne-Franche-Comté;Sacquenay;288
gouhelans;47.454215945;6.357158985;doubs;25;bourgogne-franche-comté;27;Bourgogne-Franche-Comté;Gouhelans;119
st anthot;47.320515948;4.643106251;côte-d'or;21;bourgogne-franche-comté;27;Bourgogne-Franche-Comté;Saint-Anthot;59
goux les usiers;46.981021878;6.294050399;doubs;25;bourgogne-franche-comté;27;Bourgogne-Franche-Comté;Goux-les-Usiers;791
st germain de modeon;47.372228118;4.124249389;côte-d'or;21;bourgogne-franche-comté;27;Bourgogne-Franche-Comté;Saint-Germain-de-Modéon;177
les grangettes;46.832363933;6.315441847;doubs;25;bourgogne-franche-comté;27;Bourgogne-Franche-Comté;Les Grangettes;310
st germain les senailly;47.597908155;4.281154538;côte-d'or;21;bourgogne-franche-comté;27;Bourgogne-Franche-Comté;Saint-Germain-lès-Senailly;119
guillon les bains;47.315762888;6.394032102;doubs;25;bourgogne-franche-comté;27;Bourgogne-Franche-Comté;Guillon-les-Bains;110
ste marie la blanche;46.974042264;4.891800839;côte-d'or;21;bourgogne-franche-comté;27;Bourgogne-Franche-Comté;Sainte-Marie-la-Blanche;907
guyans durnes;47.129544672;6.243733817;doubs;25;bourgogne-franche-comté;27;Bourgogne-Franche-Comté;Guyans-Durnes;310
st martin de la mer;47.237473882;4.229583257;côte-d'or;21;bourgogne-franche-comté;27;Bourgogne-Franche-Comté;Saint-Martin-de-la-Mer;291
guyans vennes;47.167578551;6.5837129260000005;doubs;25;bourgogne-franche-comté;27;Bourgogne-Franche-Comté;Guyans-Vennes;856
st maurice sur vingeanne;47.579115371;5.398248858;côte-d'or;21;bourgogne-franche-comté;27;Bourgogne-Franche-Comté;Saint-Maurice-sur-Vingeanne;199
houtaud;46.911849921;6.301140834;doubs;25;bourgogne-franche-comté;27;Bourgogne-Franche-Comté;Houtaud;1178
st nicolas les citeaux;47.129029287;5.08444922;côte-d'or;21;bourgogne-franche-comté;27;Bourgogne-Franche-Comté;Saint-Nicolas-lès-Cîteaux;393
hyevre paroisse;47.374017986;6.43290148;doubs;25;bourgogne-franche-comté;27;Bourgogne-Franche-Comté;Hyèvre-Paroisse;195
semur en auxois;47.491002004;4.341535843;côte-d'or;21;bourgogne-franche-comté;27;Bourgogne-Franche-Comté;Semur-en-Auxois;4068
souhey;47.487946354;4.420852998;côte-d'or;21;bourgogne-franche-comté;27;Bourgogne-Franche-Comté;Souhey;84
larnod;47.178626281;5.973427465;doubs;25;bourgogne-franche-comté;27;Bourgogne-Franche-Comté;Larnod;795
tart;47.192656727;5.214099319;côte-d'or;21;bourgogne-franche-comté;27;Bourgogne-Franche-Comté;Tart;1548
lavans vuillafans;47.08029646;6.25790085;doubs;25;bourgogne-franche-comté;27;Bourgogne-Franche-Comté;Lavans-Vuillafans;245
thenissey;47.496481042;4.6188211500000005;côte-d'or;21;bourgogne-franche-comté;27;Bourgogne-Franche-Comté;Thenissey;90
levier;46.959668626;6.11213352;doubs;25;bourgogne-franche-comté;27;Bourgogne-Franche-Comté;Levier;2287
thoste;47.435586508;4.227003901;côte-d'or;21;bourgogne-franche-comté;27;Bourgogne-Franche-Comté;Thoste;101
loray;47.159449996;6.496787846;doubs;25;bourgogne-franche-comté;27;Bourgogne-Franche-Comté;Loray;615
torcy et pouligny;47.497135953;4.236215349;côte-d'or;21;bourgogne-franche-comté;27;Bourgogne-Franche-Comté;Torcy-et-Pouligny;212
lougres;47.471561341;6.683822844;doubs;25;bourgogne-franche-comté;27;Bourgogne-Franche-Comté;Lougres;727
trugny;46.972021191;5.146050017;côte-d'or;21;bourgogne-franche-comté;27;Bourgogne-Franche-Comté;Trugny;118
maisons du bois lievremont;46.979971046;6.413893013;doubs;25;bourgogne-franche-comté;27;Bourgogne-Franche-Comté;Maisons-du-Bois-Lièvremont;854
uncey le franc;47.343787519;4.574884325;côte-d'or;21;bourgogne-franche-comté;27;Bourgogne-Franche-Comté;Uncey-le-Franc;51
vandenesse en auxois;47.223241582;4.620473047;côte-d'or;21;bourgogne-franche-comté;27;Bourgogne-Franche-Comté;Vandenesse-en-Auxois;295
mancenans lizerne;47.25848706;6.77436117;doubs;25;bourgogne-franche-comté;27;Bourgogne-Franche-Comté;Mancenans-Lizerne;187
varanges;47.234904542;5.191566814;côte-d'or;21;bourgogne-franche-comté;27;Bourgogne-Franche-Comté;Varanges;690
mazerolles le salin;47.244250233;5.865925367;doubs;25;bourgogne-franche-comté;27;Bourgogne-Franche-Comté;Mazerolles-le-Salin;219
vernois les vesvres;47.652763876;5.150622041;côte-d'or;21;bourgogne-franche-comté;27;Bourgogne-Franche-Comté;Vernois-lès-Vesvres;161
mediere;47.463207849;6.602536929;doubs;25;bourgogne-franche-comté;27;Bourgogne-Franche-Comté;Médière;280
veronnes;47.535521283;5.238931352;côte-d'or;21;bourgogne-franche-comté;27;Bourgogne-Franche-Comté;Véronnes;396
les monts ronds;47.163249504;6.064002076;doubs;25;bourgogne-franche-comté;27;Bourgogne-Franche-Comté;Les Monts-Ronds;668
verrey sous salmaise;47.438444593;4.674579018;côte-d'or;21;bourgogne-franche-comté;27;Bourgogne-Franche-Comté;Verrey-sous-Salmaise;295
moncey;47.361799381;6.135551844;doubs;25;bourgogne-franche-comté;27;Bourgogne-Franche-Comté;Moncey;617
vianges;47.16554949;4.325129754;côte-d'or;21;bourgogne-franche-comté;27;Bourgogne-Franche-Comté;Vianges;37
mondon;47.448522447;6.312905664;doubs;25;bourgogne-franche-comté;27;Bourgogne-Franche-Comté;Mondon;85
villedieu;47.907524081;4.383678401;côte-d'or;21;bourgogne-franche-comté;27;Bourgogne-Franche-Comté;Villedieu;70
montecheroux;47.348726264;6.798454213;doubs;25;bourgogne-franche-comté;27;Bourgogne-Franche-Comté;Montécheroux;551
villers la faye;47.108746761;4.884116014;côte-d'or;21;bourgogne-franche-comté;27;Bourgogne-Franche-Comté;Villers-la-Faye;394
montivernage;47.311241144;6.421898621;doubs;25;bourgogne-franche-comté;27;Bourgogne-Franche-Comté;Montivernage;27
villers les pots;47.210801454;5.346704888;côte-d'or;21;bourgogne-franche-comté;27;Bourgogne-Franche-Comté;Villers-les-Pots;1192
montjoie le chateau;47.346058707;6.897284926;doubs;25;bourgogne-franche-comté;27;Bourgogne-Franche-Comté;Montjoie-le-Château;23
villiers le duc;47.792475104;4.703567396;côte-d'or;21;bourgogne-franche-comté;27;Bourgogne-Franche-Comté;Villiers-le-Duc;108
montmahoux;46.983214277;6.032936961;doubs;25;bourgogne-franche-comté;27;Bourgogne-Franche-Comté;Montmahoux;91
vitteaux;47.397212323;4.542376612;côte-d'or;21;bourgogne-franche-comté;27;Bourgogne-Franche-Comté;Vitteaux;1059
montperreux;46.820708517;6.3444674370000005;doubs;25;bourgogne-franche-comté;27;Bourgogne-Franche-Comté;Montperreux;925
vonges;47.2891755;5.395622898;côte-d'or;21;bourgogne-franche-comté;27;Bourgogne-Franche-Comté;Vonges;354
myon;47.009644779;5.939465516;doubs;25;bourgogne-franche-comté;27;Bourgogne-Franche-Comté;Myon;179
vougeot;47.173717999;4.960133384;côte-d'or;21;bourgogne-franche-comté;27;Bourgogne-Franche-Comté;Vougeot;155
naisey les granges;47.208566991;6.234317116;doubs;25;bourgogne-franche-comté;27;Bourgogne-Franche-Comté;Naisey-les-Granges;808
nancray;47.249539677;6.177531079;doubs;25;bourgogne-franche-comté;27;Bourgogne-Franche-Comté;Nancray;1286
nans;47.476253888;6.410721751;doubs;25;bourgogne-franche-comté;27;Bourgogne-Franche-Comté;Nans;93
noel cerneux;47.104741344;6.659243894;doubs;25;bourgogne-franche-comté;27;Bourgogne-Franche-Comté;Noël-Cerneux;456
ollans;47.42068642;6.245382003;doubs;25;bourgogne-franche-comté;27;Bourgogne-Franche-Comté;Ollans;38
orgeans blanchefontaine;47.266027852;6.753618492;doubs;25;bourgogne-franche-comté;27;Bourgogne-Franche-Comté;Orgeans-Blanchefontaine;40
pessans;47.073241272;5.887283561;doubs;25;bourgogne-franche-comté;27;Bourgogne-Franche-Comté;Pessans;89
la planee;46.841870063;6.272271604;doubs;25;bourgogne-franche-comté;27;Bourgogne-Franche-Comté;La Planée;317
pont de roide vermondans;47.385051549;6.762837434;doubs;25;bourgogne-franche-comté;27;Bourgogne-Franche-Comté;Pont-de-Roide-Vermondans;4030
pouilley francais;47.206147296;5.84278504;doubs;25;bourgogne-franche-comté;27;Bourgogne-Franche-Comté;Pouilley-Français;832
